{"tag": "bixi-montreal", "meta": {"city": "Montreal, QC", "name": "Bixi", "country": "CA", "company": "PBSC", "system": "Bixi", "longitude": -73.55399249999999, "latitude": 45.5086699}, "method": "xml", "feed_url": "https://montreal.bixi.com/data/bikeStations.xml", "stations": [{"name": "6001 - Notre Dame / Place Jacques Cartier", "extra": {"removalDate": "1353352920000", "locked": true, "uid": 1, "installDate": "1366905720000", "latestUpdateTime": "1384566008489", "temporary": false, "installed": true, "terminalName": "6001", "name": "Notre Dame / Place Jacques Cartier"}, "timestamp": "2014-03-03T12:37:41.899457", "longitude": -73.554094, "bikes": 0, "free": 27, "latitude": 45.508183, "id": 0}, {"name": "6002 - D\u00e9zery/Ste-Catherine", "extra": {"removalDate": "1353638460000", "locked": true, "uid": 2, "installDate": "1365877320000", "latestUpdateTime": "1385276033750", "temporary": false, "installed": true, "terminalName": "6002", "name": "D\u00e9zery/Ste-Catherine"}, "timestamp": "2014-03-03T12:37:41.899457", "longitude": -73.5414, "bikes": 0, "free": 23, "latitude": 45.5392, "id": 1}, {"name": "6003 - St-Maurice/st-henri", "extra": {"removalDate": "", "locked": false, "uid": 3, "installDate": "", "latestUpdateTime": "", "temporary": false, "installed": false, "terminalName": "6003", "name": "St-Maurice/st-henri"}, "timestamp": "2014-03-03T12:37:41.899457", "longitude": -73.558969, "bikes": 0, "free": 0, "latitude": 45.499941, "id": 2}, {"name": "6004 - Berri / Saint-Antoine", "extra": {"removalDate": "1353352920000", "locked": true, "uid": 4, "installDate": "1364404740000", "latestUpdateTime": "1384928651704", "temporary": false, "installed": true, "terminalName": "6004", "name": "Berri / Saint-Antoine"}, "timestamp": "2014-03-03T12:37:41.899457", "longitude": -73.55393081903458, "bikes": 0, "free": 33, "latitude": 45.51205360327094, "id": 3}, {"name": "6006 - Saint-Antoine / de l'H\u00f4tel-de-Ville", "extra": {"removalDate": "1353359340000", "locked": true, "uid": 6, "installDate": "1364400360000", "latestUpdateTime": "1384928729740", "temporary": false, "installed": true, "terminalName": "6006", "name": "Saint-Antoine / de l'H\u00f4tel-de-Ville"}, "timestamp": "2014-03-03T12:37:41.899457", "longitude": -73.55613, "bikes": 0, "free": 15, "latitude": 45.50875, "id": 4}, {"name": "6007 - de l'H\u00f4tel-de-Ville / Sainte-Catherine", "extra": {"removalDate": "1353549780000", "locked": true, "uid": 7, "installDate": "1334617980000", "latestUpdateTime": "", "temporary": false, "installed": false, "terminalName": "6007", "name": "de l'H\u00f4tel-de-Ville / Sainte-Catherine"}, "timestamp": "2014-03-03T12:37:41.899457", "longitude": -73.5621839761734, "bikes": 0, "free": 0, "latitude": 45.51164009357107, "id": 5}, {"name": "6008 - Sanguinet /Ste-Catherine", "extra": {"removalDate": "1353549780000", "locked": true, "uid": 8, "installDate": "1364222400000", "latestUpdateTime": "1384928611298", "temporary": false, "installed": true, "terminalName": "6008", "name": "Sanguinet /Ste-Catherine"}, "timestamp": "2014-03-03T12:37:41.899457", "longitude": -73.561438, "bikes": 0, "free": 31, "latitude": 45.512738, "id": 6}, {"name": "6009 - Berri / Sainte-Catherine", "extra": {"removalDate": "1353551100000", "locked": true, "uid": 9, "installDate": "1364418780000", "latestUpdateTime": "1384928687748", "temporary": false, "installed": true, "terminalName": "6009", "name": "Berri / Sainte-Catherine"}, "timestamp": "2014-03-03T12:37:41.899457", "longitude": -73.55977535247803, "bikes": 0, "free": 23, "latitude": 45.51462481358633, "id": 7}, {"name": "6901 - Sainte-Catherine / Saint-Denis", "extra": {"removalDate": "1353551520000", "locked": true, "uid": 10, "installDate": "1364598900000", "latestUpdateTime": "1385015425276", "temporary": false, "installed": true, "terminalName": "6901", "name": "Sainte-Catherine / Saint-Denis"}, "timestamp": "2014-03-03T12:37:41.899457", "longitude": -73.56054782867432, "bikes": 0, "free": 39, "latitude": 45.51371137074363, "id": 8}, {"name": "6011 - Saint-Andr\u00e9 / Saint-Antoine", "extra": {"removalDate": "1353549780000", "locked": true, "uid": 11, "installDate": "1364395200000", "latestUpdateTime": "1384928721762", "temporary": false, "installed": true, "terminalName": "6011", "name": "Saint-Andr\u00e9 / Saint-Antoine"}, "timestamp": "2014-03-03T12:37:41.899457", "longitude": -73.552439, "bikes": 0, "free": 15, "latitude": 45.514076, "id": 9}, {"name": "6012 - M\u00e9tro Saint-Laurent (Maisonneuve / St-Laurent)", "extra": {"removalDate": "1353550020000", "locked": true, "uid": 12, "installDate": "1364688720000", "latestUpdateTime": "1384841746681", "temporary": false, "installed": true, "terminalName": "6012", "name": "M\u00e9tro Saint-Laurent (Maisonneuve / St-Laurent)"}, "timestamp": "2014-03-03T12:37:41.899457", "longitude": -73.56497, "bikes": 0, "free": 41, "latitude": 45.51066, "id": 10}, {"name": "6013 - Sanguinet / de Maisonneuve", "extra": {"removalDate": "1353268620000", "locked": true, "uid": 13, "installDate": "1364237460000", "latestUpdateTime": "1384928653866", "temporary": false, "installed": true, "terminalName": "6013", "name": "Sanguinet / de Maisonneuve"}, "timestamp": "2014-03-03T12:37:41.899457", "longitude": -73.56255, "bikes": 0, "free": 27, "latitude": 45.51339, "id": 11}, {"name": "6014 - St-Denis / Maisonneuve", "extra": {"removalDate": "1353268680000", "locked": true, "uid": 14, "installDate": "1364245740000", "latestUpdateTime": "1384928564175", "temporary": false, "installed": true, "terminalName": "6014", "name": "St-Denis / Maisonneuve"}, "timestamp": "2014-03-03T12:37:41.899457", "longitude": -73.562152, "bikes": 0, "free": 31, "latitude": 45.514649, "id": 12}, {"name": "6015 - Berri / de Maisonneuve", "extra": {"removalDate": "1353551220000", "locked": true, "uid": 15, "installDate": "1364410080000", "latestUpdateTime": "1384928730114", "temporary": false, "installed": true, "terminalName": "6015", "name": "Berri / de Maisonneuve"}, "timestamp": "2014-03-03T12:37:41.899457", "longitude": -73.561273, "bikes": 0, "free": 31, "latitude": 45.515299, "id": 13}, {"name": "6016 - Saint-Andr\u00e9 / Maisonneuve", "extra": {"removalDate": "1353551160000", "locked": true, "uid": 16, "installDate": "1363133580000", "latestUpdateTime": "1384841747243", "temporary": false, "installed": true, "terminalName": "6016", "name": "Saint-Andr\u00e9 / Maisonneuve"}, "timestamp": "2014-03-03T12:37:41.899457", "longitude": -73.55913, "bikes": 0, "free": 23, "latitude": 45.51774, "id": 14}, {"name": "6017 - Robin / Amherst", "extra": {"removalDate": "1353551160000", "locked": true, "uid": 17, "installDate": "1364429580000", "latestUpdateTime": "1384928723529", "temporary": false, "installed": true, "terminalName": "6017", "name": "Robin / Amherst"}, "timestamp": "2014-03-03T12:37:41.899457", "longitude": -73.56091, "bikes": 0, "free": 15, "latitude": 45.51905, "id": 15}, {"name": "6018 - Saint-Andr\u00e9 / Ontario", "extra": {"removalDate": "1353551100000", "locked": true, "uid": 18, "installDate": "1364424120000", "latestUpdateTime": "1384841748627", "temporary": false, "installed": true, "terminalName": "6018", "name": "Saint-Andr\u00e9 / Ontario"}, "timestamp": "2014-03-03T12:37:41.899457", "longitude": -73.56353, "bikes": 0, "free": 19, "latitude": 45.51889, "id": 16}, {"name": "6019 - Berri / Sherbrooke", "extra": {"removalDate": "1353354900000", "locked": true, "uid": 19, "installDate": "1364299560000", "latestUpdateTime": "1384841939045", "temporary": false, "installed": true, "terminalName": "6019", "name": "Berri / Sherbrooke"}, "timestamp": "2014-03-03T12:37:41.899457", "longitude": -73.567205, "bikes": 0, "free": 23, "latitude": 45.517836, "id": 17}, {"name": "6020 - Sanguinet / Ontario", "extra": {"removalDate": "1353354960000", "locked": true, "uid": 20, "installDate": "1364251380000", "latestUpdateTime": "1384841939365", "temporary": false, "installed": true, "terminalName": "6020", "name": "Sanguinet / Ontario"}, "timestamp": "2014-03-03T12:37:41.899457", "longitude": -73.566262, "bikes": 0, "free": 23, "latitude": 45.513481, "id": 18}, {"name": "6902 - Montcalm/Ontario", "extra": {"removalDate": "", "locked": true, "uid": 21, "installDate": "1366305960000", "latestUpdateTime": "1385189115117", "temporary": false, "installed": true, "terminalName": "6902", "name": "Montcalm/Ontario"}, "timestamp": "2014-03-03T12:37:41.899457", "longitude": -73.562441, "bikes": 0, "free": 15, "latitude": 45.521165, "id": 19}, {"name": "6023 - de la Commune / Berri", "extra": {"removalDate": "1353414780000", "locked": true, "uid": 22, "installDate": "1333230060000", "latestUpdateTime": "1385015466138", "temporary": false, "installed": true, "terminalName": "6023", "name": "de la Commune / Berri"}, "timestamp": "2014-03-03T12:37:41.899457", "longitude": -73.54983, "bikes": 0, "free": 34, "latitude": 45.51086, "id": 20}, {"name": "6024 - Saint-Timoth\u00e9e / Sainte-Catherine", "extra": {"removalDate": "1352228700000", "locked": true, "uid": 23, "installDate": "1364248860000", "latestUpdateTime": "1384613975274", "temporary": false, "installed": true, "terminalName": "6024", "name": "Saint-Timoth\u00e9e / Sainte-Catherine"}, "timestamp": "2014-03-03T12:37:41.899457", "longitude": -73.55744183063507, "bikes": 0, "free": 31, "latitude": 45.51699292968662, "id": 21}, {"name": "6025 - Notre-Dame / Saint-Gabriel", "extra": {"removalDate": "1353359460000", "locked": true, "uid": 24, "installDate": "1364418120000", "latestUpdateTime": "1384841748952", "temporary": false, "installed": true, "terminalName": "6025", "name": "Notre-Dame / Saint-Gabriel"}, "timestamp": "2014-03-03T12:37:41.899457", "longitude": -73.55511903762817, "bikes": 0, "free": 23, "latitude": 45.50714391928411, "id": 22}, {"name": "6026 - de la Commune / Place Jacques-Cartier", "extra": {"removalDate": "1353358080000", "locked": true, "uid": 25, "installDate": "1366910160000", "latestUpdateTime": "1385015467142", "temporary": false, "installed": true, "terminalName": "6026", "name": "de la Commune / Place Jacques-Cartier"}, "timestamp": "2014-03-03T12:37:41.899457", "longitude": -73.5520076751709, "bikes": 0, "free": 65, "latitude": 45.50719279267449, "id": 23}, {"name": "6029 - Belair/St-Antoine", "extra": {"removalDate": "1353200820000", "locked": true, "uid": 28, "installDate": "1365549240000", "latestUpdateTime": "1384667993571", "temporary": false, "installed": true, "terminalName": "6029", "name": "Belair/St-Antoine"}, "timestamp": "2014-03-03T12:37:41.899457", "longitude": -73.584352, "bikes": 0, "free": 11, "latitude": 45.482843, "id": 24}, {"name": "6031 - Saint-Antoine / Saint-Fran\u00e7ois-Xavier", "extra": {"removalDate": "1353413940000", "locked": true, "uid": 30, "installDate": "1364248020000", "latestUpdateTime": "1384755044926", "temporary": false, "installed": true, "terminalName": "6031", "name": "Saint-Antoine / Saint-Fran\u00e7ois-Xavier"}, "timestamp": "2014-03-03T12:37:41.899457", "longitude": -73.5592, "bikes": 0, "free": 15, "latitude": 45.50449, "id": 25}, {"name": "6032 - M\u00e9tro Place-d'Armes (Viger/St-Urbain)", "extra": {"removalDate": "1353352680000", "locked": true, "uid": 31, "installDate": "1364420760000", "latestUpdateTime": "1384754983798", "temporary": false, "installed": true, "terminalName": "6032", "name": "M\u00e9tro Place-d'Armes (Viger/St-Urbain)"}, "timestamp": "2014-03-03T12:37:41.899457", "longitude": -73.55976, "bikes": 0, "free": 33, "latitude": 45.50623, "id": 26}, {"name": "6033 - 20e av/beaubien", "extra": {"removalDate": "", "locked": true, "uid": 32, "installDate": "1366220940000", "latestUpdateTime": "1385529479381", "temporary": false, "installed": true, "terminalName": "6033", "name": "20e av/beaubien"}, "timestamp": "2014-03-03T12:37:41.899457", "longitude": -73.580611, "bikes": 0, "free": 23, "latitude": 45.560814, "id": 27}, {"name": "6034 - Saint-Urbain / Ren\u00e9-L\u00e9vesque", "extra": {"removalDate": "1353357600000", "locked": true, "uid": 33, "installDate": "1367358720000", "latestUpdateTime": "1384928729698", "temporary": false, "installed": true, "terminalName": "6034", "name": "Saint-Urbain / Ren\u00e9-L\u00e9vesque"}, "timestamp": "2014-03-03T12:37:41.899457", "longitude": -73.563112, "bikes": 0, "free": 23, "latitude": 45.5079, "id": 28}, {"name": "6035 - de la Gaucheti\u00e8re / Bleury", "extra": {"removalDate": "1353353100000", "locked": true, "uid": 34, "installDate": "1364766900000", "latestUpdateTime": "1384928563492", "temporary": false, "installed": true, "terminalName": "6035", "name": "de la Gaucheti\u00e8re / Bleury"}, "timestamp": "2014-03-03T12:37:41.899457", "longitude": -73.56257, "bikes": 0, "free": 19, "latitude": 45.50439, "id": 29}, {"name": "6036 - de la Commune / Saint-Sulpice", "extra": {"removalDate": "1353352740000", "locked": true, "uid": 35, "installDate": "1367193600000", "latestUpdateTime": "1384668092221", "temporary": false, "installed": true, "terminalName": "6036", "name": "de la Commune / Saint-Sulpice"}, "timestamp": "2014-03-03T12:37:41.899457", "longitude": -73.55360627174377, "bikes": 0, "free": 43, "latitude": 45.50406856984278, "id": 30}, {"name": "6037 - Saint-Nicolas / Place d'Youville", "extra": {"removalDate": "1353413940000", "locked": true, "uid": 36, "installDate": "1364245920000", "latestUpdateTime": "1384841894892", "temporary": false, "installed": true, "terminalName": "6037", "name": "Saint-Nicolas / Place d'Youville"}, "timestamp": "2014-03-03T12:37:41.899457", "longitude": -73.55515658855438, "bikes": 0, "free": 15, "latitude": 45.50197437877896, "id": 31}, {"name": "6038 - McGill / d'Youville", "extra": {"removalDate": "1352812020000", "locked": true, "uid": 37, "installDate": "1364232960000", "latestUpdateTime": "1384928612630", "temporary": false, "installed": true, "terminalName": "6038", "name": "McGill / d'Youville"}, "timestamp": "2014-03-03T12:37:41.899457", "longitude": -73.55566, "bikes": 0, "free": 23, "latitude": 45.49975, "id": 32}, {"name": "6039 - McGill / des R\u00e9collets", "extra": {"removalDate": "1352812020000", "locked": true, "uid": 38, "installDate": "1364247720000", "latestUpdateTime": "1384928611645", "temporary": false, "installed": true, "terminalName": "6039", "name": "McGill / des R\u00e9collets"}, "timestamp": "2014-03-03T12:37:41.899457", "longitude": -73.558826, "bikes": 0, "free": 23, "latitude": 45.500779, "id": 33}, {"name": "6040 - Saint-Jacques / Saint-Pierre", "extra": {"removalDate": "1353266760000", "locked": true, "uid": 39, "installDate": "1364231580000", "latestUpdateTime": "1384755043917", "temporary": false, "installed": true, "terminalName": "6040", "name": "Saint-Jacques / Saint-Pierre"}, "timestamp": "2014-03-03T12:37:41.899457", "longitude": -73.55917, "bikes": 0, "free": 23, "latitude": 45.5028, "id": 34}, {"name": "6041 - Saint-Jacques / McGill", "extra": {"removalDate": "1353266760000", "locked": true, "uid": 40, "installDate": "1364245380000", "latestUpdateTime": "1384754897282", "temporary": false, "installed": true, "terminalName": "6041", "name": "Saint-Jacques / McGill"}, "timestamp": "2014-03-03T12:37:41.899457", "longitude": -73.560229, "bikes": 0, "free": 35, "latitude": 45.501334, "id": 35}, {"name": "6042 - de la Gaucheti\u00e8re / University", "extra": {"removalDate": "1353353040000", "locked": true, "uid": 41, "installDate": "1364347620000", "latestUpdateTime": "1384928564603", "temporary": false, "installed": true, "terminalName": "6042", "name": "de la Gaucheti\u00e8re / University"}, "timestamp": "2014-03-03T12:37:41.899457", "longitude": -73.56493, "bikes": 0, "free": 31, "latitude": 45.50112, "id": 36}, {"name": "6043 - Square Victoria", "extra": {"removalDate": "1353359700000", "locked": true, "uid": 42, "installDate": "1364330460000", "latestUpdateTime": "1384620609750", "temporary": false, "installed": true, "terminalName": "6043", "name": "Square Victoria"}, "timestamp": "2014-03-03T12:37:41.899457", "longitude": -73.56295, "bikes": 0, "free": 15, "latitude": 45.50206, "id": 37}, {"name": "6044 - Rue St-Andr\u00e9 / Roy", "extra": {"removalDate": "1353972900000", "locked": true, "uid": 43, "installDate": "1364577120000", "latestUpdateTime": "1384841894165", "temporary": false, "installed": true, "terminalName": "6044", "name": "Rue St-Andr\u00e9 / Roy"}, "timestamp": "2014-03-03T12:37:41.899457", "longitude": -73.570209, "bikes": 0, "free": 15, "latitude": 45.52169, "id": 38}, {"name": "6046 - de la Gaucheti\u00e8re / Mansfield", "extra": {"removalDate": "1353638100000", "locked": true, "uid": 45, "installDate": "1364347500000", "latestUpdateTime": "1384928564696", "temporary": false, "installed": true, "terminalName": "6046", "name": "de la Gaucheti\u00e8re / Mansfield"}, "timestamp": "2014-03-03T12:37:41.899457", "longitude": -73.56671, "bikes": 0, "free": 11, "latitude": 45.49871, "id": 39}, {"name": "6204 - Milton / Durocher", "extra": {"removalDate": "1352811960000", "locked": false, "uid": 46, "installDate": "1364861820000", "latestUpdateTime": "1384259804587", "temporary": false, "installed": false, "terminalName": "6204", "name": "Milton / Durocher"}, "timestamp": "2014-03-03T12:37:41.899457", "longitude": -73.574707, "bikes": 0, "free": 27, "latitude": 45.508231, "id": 40}, {"name": "6048 - Prince/Wellington", "extra": {"removalDate": "1353414900000", "locked": true, "uid": 47, "installDate": "1365282720000", "latestUpdateTime": "1384668038256", "temporary": false, "installed": true, "terminalName": "6048", "name": "Prince/Wellington"}, "timestamp": "2014-03-03T12:37:41.899457", "longitude": -73.555852, "bikes": 0, "free": 19, "latitude": 45.497089, "id": 41}, {"name": "6049 - King / Wellington", "extra": {"removalDate": "1353271020000", "locked": true, "uid": 48, "installDate": "1364261040000", "latestUpdateTime": "1384754898777", "temporary": false, "installed": true, "terminalName": "6049", "name": "King / Wellington"}, "timestamp": "2014-03-03T12:37:41.899457", "longitude": -73.55488, "bikes": 0, "free": 31, "latitude": 45.4982, "id": 42}, {"name": "6050 - de la Commune / McGill", "extra": {"removalDate": "1353354660000", "locked": true, "uid": 49, "installDate": "1367256300000", "latestUpdateTime": "1385102102068", "temporary": false, "installed": true, "terminalName": "6050", "name": "de la Commune / McGill"}, "timestamp": "2014-03-03T12:37:41.899457", "longitude": -73.55232, "bikes": 0, "free": 30, "latitude": 45.49886, "id": 43}, {"name": "6051 - Duke/Brennan", "extra": {"removalDate": "", "locked": true, "uid": 50, "installDate": "1364253720000", "latestUpdateTime": "1384788838782", "temporary": false, "installed": true, "terminalName": "6051", "name": "Duke/Brennan"}, "timestamp": "2014-03-03T12:37:41.899457", "longitude": -73.553896, "bikes": 0, "free": 15, "latitude": 45.495705, "id": 44}, {"name": "6052 - De la Commune / King", "extra": {"removalDate": "1353551340000", "locked": true, "uid": 51, "installDate": "", "latestUpdateTime": "1385102251192", "temporary": false, "installed": true, "terminalName": "6052", "name": "De la Commune / King"}, "timestamp": "2014-03-03T12:37:41.899457", "longitude": -73.552802, "bikes": 0, "free": 75, "latitude": 45.497438, "id": 45}, {"name": "6053 - Belmont / Beaver Hall", "extra": {"removalDate": "1353414900000", "locked": true, "uid": 52, "installDate": "1364248080000", "latestUpdateTime": "1384581377651", "temporary": false, "installed": true, "terminalName": "6053", "name": "Belmont / Beaver Hall"}, "timestamp": "2014-03-03T12:37:41.899457", "longitude": -73.565138, "bikes": 0, "free": 15, "latitude": 45.502326, "id": 46}, {"name": "6057 - Peel / ave des Canadiens de Montr\u00e9al", "extra": {"removalDate": "1353413400000", "locked": true, "uid": 55, "installDate": "1364334900000", "latestUpdateTime": "1384581361373", "temporary": false, "installed": true, "terminalName": "6057", "name": "Peel / ave des Canadiens de Montr\u00e9al"}, "timestamp": "2014-03-03T12:37:41.899457", "longitude": -73.568646, "bikes": 0, "free": 14, "latitude": 45.497697, "id": 47}, {"name": "6058 - Drummond / Rene Levesques", "extra": {"removalDate": "1353413280000", "locked": false, "uid": 56, "installDate": "1364329860000", "latestUpdateTime": "1380653046153", "temporary": false, "installed": false, "terminalName": "6058", "name": "Drummond / Rene Levesques"}, "timestamp": "2014-03-03T12:37:41.899457", "longitude": -73.571384, "bikes": 0, "free": 23, "latitude": 45.497196, "id": 48}, {"name": "6059 - Metcalfe / Sainte-Catherine", "extra": {"removalDate": "1353413340000", "locked": true, "uid": 57, "installDate": "1367087040000", "latestUpdateTime": "1384841939346", "temporary": false, "installed": true, "terminalName": "6059", "name": "Metcalfe / Sainte-Catherine"}, "timestamp": "2014-03-03T12:37:41.899457", "longitude": -73.57215642929077, "bikes": 0, "free": 30, "latitude": 45.50068473942228, "id": 49}, {"name": "6060 - Mansfield / Ren\u00e9-L\u00e9vesque", "extra": {"removalDate": "1353549720000", "locked": true, "uid": 58, "installDate": "1366910760000", "latestUpdateTime": "1384839247823", "temporary": false, "installed": true, "terminalName": "6060", "name": "Mansfield / Ren\u00e9-L\u00e9vesque"}, "timestamp": "2014-03-03T12:37:41.899457", "longitude": -73.56928, "bikes": 0, "free": 15, "latitude": 45.50015, "id": 50}, {"name": "6061 - Sainte-Catherine / McGill College", "extra": {"removalDate": "1352902560000", "locked": true, "uid": 59, "installDate": "1364236260000", "latestUpdateTime": "1384581398328", "temporary": false, "installed": true, "terminalName": "6061", "name": "Sainte-Catherine / McGill College"}, "timestamp": "2014-03-03T12:37:41.899457", "longitude": -73.57128, "bikes": 0, "free": 43, "latitude": 45.50176, "id": 51}, {"name": "6062 - Drummond / Sainte-Catherine", "extra": {"removalDate": "1353550200000", "locked": true, "uid": 60, "installDate": "1364318400000", "latestUpdateTime": "1384667996519", "temporary": false, "installed": true, "terminalName": "6062", "name": "Drummond / Sainte-Catherine"}, "timestamp": "2014-03-03T12:37:41.899457", "longitude": -73.57422709465027, "bikes": 0, "free": 23, "latitude": 45.49863930330429, "id": 52}, {"name": "6063 - Drummond / de Maisonneuve", "extra": {"removalDate": "1383571020000", "locked": false, "uid": 61, "installDate": "1364318520000", "latestUpdateTime": "1383567262730", "temporary": false, "installed": false, "terminalName": "6063", "name": "Drummond / de Maisonneuve"}, "timestamp": "2014-03-03T12:37:41.899457", "longitude": -73.57591, "bikes": 0, "free": 23, "latitude": 45.49947, "id": 53}, {"name": "6064 - de Maisonneuve / Stanley", "extra": {"removalDate": "1353638160000", "locked": true, "uid": 62, "installDate": "1364322540000", "latestUpdateTime": "1384754898652", "temporary": false, "installed": true, "terminalName": "6064", "name": "de Maisonneuve / Stanley"}, "timestamp": "2014-03-03T12:37:41.899457", "longitude": -73.57507, "bikes": 0, "free": 41, "latitude": 45.50038, "id": 54}, {"name": "6065 - de la montagne / Sherbrooke", "extra": {"removalDate": "1353415380000", "locked": true, "uid": 63, "installDate": "1364306220000", "latestUpdateTime": "1384755043959", "temporary": false, "installed": true, "terminalName": "6065", "name": "de la montagne / Sherbrooke"}, "timestamp": "2014-03-03T12:37:41.899457", "longitude": -73.57869, "bikes": 1, "free": 22, "latitude": 45.499532, "id": 55}, {"name": "6067 - de Maisonneuve / University", "extra": {"removalDate": "1353539700000", "locked": true, "uid": 64, "installDate": "1364420940000", "latestUpdateTime": "1384585702549", "temporary": false, "installed": true, "terminalName": "6067", "name": "de Maisonneuve / University"}, "timestamp": "2014-03-03T12:37:41.899457", "longitude": -73.572103, "bikes": 0, "free": 19, "latitude": 45.503475, "id": 56}, {"name": "6068 - Mansfield / Sherbrooke", "extra": {"removalDate": "1351009500000", "locked": true, "uid": 65, "installDate": "1364334600000", "latestUpdateTime": "1384577592943", "temporary": false, "installed": true, "terminalName": "6068", "name": "Mansfield / Sherbrooke"}, "timestamp": "2014-03-03T12:37:41.899457", "longitude": -73.57505, "bikes": 0, "free": 19, "latitude": 45.50297, "id": 57}, {"name": "6070 - University / Milton", "extra": {"removalDate": "1352811960000", "locked": false, "uid": 67, "installDate": "1364400720000", "latestUpdateTime": "1384261100226", "temporary": false, "installed": false, "terminalName": "6070", "name": "University / Milton"}, "timestamp": "2014-03-03T12:37:41.899457", "longitude": -73.57622, "bikes": 0, "free": 39, "latitude": 45.50624, "id": 58}, {"name": "6073 - de Maisonneuve / Aylmer", "extra": {"removalDate": "1353550260000", "locked": true, "uid": 68, "installDate": "1364418660000", "latestUpdateTime": "1384928651869", "temporary": false, "installed": true, "terminalName": "6073", "name": "de Maisonneuve / Aylmer"}, "timestamp": "2014-03-03T12:37:41.899457", "longitude": -73.57069, "bikes": 0, "free": 15, "latitude": 45.50501, "id": 59}, {"name": "6076 - St-Cl\u00e9ment/Ste-Catherine", "extra": {"removalDate": "1353550860000", "locked": true, "uid": 69, "installDate": "1365199200000", "latestUpdateTime": "1385189209338", "temporary": false, "installed": true, "terminalName": "6076", "name": "St-Cl\u00e9ment/Ste-Catherine"}, "timestamp": "2014-03-03T12:37:41.899457", "longitude": -73.530003, "bikes": 0, "free": 11, "latitude": 45.556491, "id": 60}, {"name": "6078 - de Maisonneuve / de Bleury", "extra": {"removalDate": "1353638040000", "locked": true, "uid": 71, "installDate": "1364408820000", "latestUpdateTime": "1384841897051", "temporary": false, "installed": true, "terminalName": "6078", "name": "de Maisonneuve / de Bleury"}, "timestamp": "2014-03-03T12:37:41.899457", "longitude": -73.56917, "bikes": 0, "free": 51, "latitude": 45.50708, "id": 61}, {"name": "6080 - Mackay / Ren\u00e9-L\u00e9vesque", "extra": {"removalDate": "1353638760000", "locked": true, "uid": 72, "installDate": "1364766300000", "latestUpdateTime": "1384627932075", "temporary": false, "installed": true, "terminalName": "6080", "name": "Mackay / Ren\u00e9-L\u00e9vesque"}, "timestamp": "2014-03-03T12:37:41.899457", "longitude": -73.57417345046997, "bikes": 0, "free": 19, "latitude": 45.49449932378212, "id": 62}, {"name": "6081 - D\u00e9p\u00f4t Saint-Alexandre / Sainte-Catherine (Stationnement du Ges\u00f9)", "extra": {"removalDate": "1353638760000", "locked": true, "uid": 73, "installDate": "1367096940000", "latestUpdateTime": "1384592925676", "temporary": false, "installed": true, "terminalName": "6081", "name": "D\u00e9p\u00f4t Saint-Alexandre / Sainte-Catherine (Stationnement du Ges\u00f9)"}, "timestamp": "2014-03-03T12:37:41.899457", "longitude": -73.566379, "bikes": 0, "free": 14, "latitude": 45.505, "id": 63}, {"name": "6082 - 6e avenue/Rosemont", "extra": {"removalDate": "1354142700000", "locked": true, "uid": 74, "installDate": "", "latestUpdateTime": "1385362893605", "temporary": false, "installed": true, "terminalName": "6082", "name": "6e avenue/Rosemont"}, "timestamp": "2014-03-03T12:37:41.899457", "longitude": -73.582883, "bikes": 0, "free": 27, "latitude": 45.550613, "id": 64}, {"name": "6083 - Square Phillips", "extra": {"removalDate": "1352924280000", "locked": true, "uid": 75, "installDate": "1367359260000", "latestUpdateTime": "1384565436426", "temporary": false, "installed": true, "terminalName": "6083", "name": "Square Phillips"}, "timestamp": "2014-03-03T12:37:41.899457", "longitude": -73.568793, "bikes": 0, "free": 31, "latitude": 45.504195, "id": 65}, {"name": "6084 - Lambert-Closse / Tupper", "extra": {"removalDate": "1353639120000", "locked": true, "uid": 76, "installDate": "1362186780000", "latestUpdateTime": "1384755041532", "temporary": false, "installed": true, "terminalName": "6084", "name": "Lambert-Closse / Tupper"}, "timestamp": "2014-03-03T12:37:41.899457", "longitude": -73.582445, "bikes": 0, "free": 15, "latitude": 45.489609, "id": 66}, {"name": "6085 - Notre-Dame / Peel", "extra": {"removalDate": "1353639180000", "locked": true, "uid": 77, "installDate": "1362186840000", "latestUpdateTime": "1384754897142", "temporary": false, "installed": true, "terminalName": "6085", "name": "Notre-Dame / Peel"}, "timestamp": "2014-03-03T12:37:41.899457", "longitude": -73.56328, "bikes": 0, "free": 39, "latitude": 45.4952, "id": 67}, {"name": "6089 - Saint-Jacques / Guy", "extra": {"removalDate": "1353199080000", "locked": true, "uid": 78, "installDate": "1367359500000", "latestUpdateTime": "1384668037512", "temporary": false, "installed": true, "terminalName": "6089", "name": "Saint-Jacques / Guy"}, "timestamp": "2014-03-03T12:37:41.899457", "longitude": -73.57015, "bikes": 0, "free": 11, "latitude": 45.49138, "id": 68}, {"name": "6090 - M\u00e9tro Lucien-L'Allier  (Lucien l'Allier/Argyle)", "extra": {"removalDate": "1353795360000", "locked": true, "uid": 79, "installDate": "1364428260000", "latestUpdateTime": "1384755043445", "temporary": false, "installed": true, "terminalName": "6090", "name": "M\u00e9tro Lucien-L'Allier  (Lucien l'Allier/Argyle)"}, "timestamp": "2014-03-03T12:37:41.899457", "longitude": -73.57108, "bikes": 1, "free": 16, "latitude": 45.49486, "id": 69}, {"name": "6091 - Joseph-Manseau / Ren\u00e9-L\u00e9vesque", "extra": {"removalDate": "", "locked": true, "uid": 80, "installDate": "1334622300000", "latestUpdateTime": "1384668090155", "temporary": false, "installed": true, "terminalName": "6091", "name": "Joseph-Manseau / Ren\u00e9-L\u00e9vesque"}, "timestamp": "2014-03-03T12:37:41.899457", "longitude": -73.576453, "bikes": 0, "free": 15, "latitude": 45.492147, "id": 70}, {"name": "6092 - Crescent / Ren\u00e9-L\u00e9vesque", "extra": {"removalDate": "1353638520000", "locked": true, "uid": 81, "installDate": "1364242740000", "latestUpdateTime": "1384668153523", "temporary": false, "installed": true, "terminalName": "6092", "name": "Crescent / Ren\u00e9-L\u00e9vesque"}, "timestamp": "2014-03-03T12:37:41.899457", "longitude": -73.57348, "bikes": 0, "free": 31, "latitude": 45.49606, "id": 71}, {"name": "6912 - Chateaubriand / Beaubien", "extra": {"removalDate": "1354144020000", "locked": true, "uid": 82, "installDate": "1366105800000", "latestUpdateTime": "1385102202423", "temporary": false, "installed": true, "terminalName": "6912", "name": "Chateaubriand / Beaubien"}, "timestamp": "2014-03-03T12:37:41.899457", "longitude": -73.603522, "bikes": 0, "free": 19, "latitude": 45.535431, "id": 72}, {"name": "6194 - M\u00e9tro Atwater (Atwater / Maisonneuve)", "extra": {"removalDate": "1353795300000", "locked": true, "uid": 83, "installDate": "1364592660000", "latestUpdateTime": "1384928653087", "temporary": false, "installed": true, "terminalName": "6194", "name": "M\u00e9tro Atwater (Atwater / Maisonneuve)"}, "timestamp": "2014-03-03T12:37:41.899457", "longitude": -73.585962, "bikes": 0, "free": 15, "latitude": 45.489904, "id": 73}, {"name": "6095 - Chomedey / de Maisonneuve", "extra": {"removalDate": "1353638520000", "locked": true, "uid": 84, "installDate": "1364430180000", "latestUpdateTime": "1384668089790", "temporary": false, "installed": true, "terminalName": "6095", "name": "Chomedey / de Maisonneuve"}, "timestamp": "2014-03-03T12:37:41.899457", "longitude": -73.5838, "bikes": 0, "free": 19, "latitude": 45.49156, "id": 74}, {"name": "6096 - Torrance / Lucien-L'Allier", "extra": {"removalDate": "1353794880000", "locked": true, "uid": 85, "installDate": "1364429820000", "latestUpdateTime": "1384755044036", "temporary": true, "installed": true, "terminalName": "6096", "name": "Torrance / Lucien-L'Allier"}, "timestamp": "2014-03-03T12:37:41.899457", "longitude": -73.568266, "bikes": 0, "free": 19, "latitude": 45.494632, "id": 75}, {"name": "6097 - Sainte-Catherine / Saint-Marc", "extra": {"removalDate": "1352902680000", "locked": true, "uid": 86, "installDate": "1364767440000", "latestUpdateTime": "1384755055569", "temporary": false, "installed": true, "terminalName": "6097", "name": "Sainte-Catherine / Saint-Marc"}, "timestamp": "2014-03-03T12:37:41.899457", "longitude": -73.58061, "bikes": 0, "free": 23, "latitude": 45.49275, "id": 76}, {"name": "6098 - Bishop / Sainte-Catherine", "extra": {"removalDate": "1353794940000", "locked": true, "uid": 87, "installDate": "1362187200000", "latestUpdateTime": "1384755042569", "temporary": false, "installed": true, "terminalName": "6098", "name": "Bishop / Sainte-Catherine"}, "timestamp": "2014-03-03T12:37:41.899457", "longitude": -73.57616, "bikes": 0, "free": 31, "latitude": 45.49642, "id": 77}, {"name": "6099 - Bishop / de Maisonneuve", "extra": {"removalDate": "1353794760000", "locked": true, "uid": 88, "installDate": "1362187560000", "latestUpdateTime": "1384841831022", "temporary": false, "installed": true, "terminalName": "6099", "name": "Bishop / de Maisonneuve"}, "timestamp": "2014-03-03T12:37:41.899457", "longitude": -73.578234, "bikes": 0, "free": 23, "latitude": 45.497475, "id": 78}, {"name": "6100 - de Maisonneuve / Mackay", "extra": {"removalDate": "1353794820000", "locked": true, "uid": 89, "installDate": "1362187560000", "latestUpdateTime": "1384668155011", "temporary": false, "installed": true, "terminalName": "6100", "name": "de Maisonneuve / Mackay"}, "timestamp": "2014-03-03T12:37:41.899457", "longitude": -73.57851, "bikes": 0, "free": 22, "latitude": 45.49659, "id": 79}, {"name": "6101 - Metro Villa Maria (D\u00e9carrie / Monkland)", "extra": {"removalDate": "1353414060000", "locked": true, "uid": 90, "installDate": "1365075900000", "latestUpdateTime": "1384633165686", "temporary": false, "installed": true, "terminalName": "6101", "name": "Metro Villa Maria (D\u00e9carrie / Monkland)"}, "timestamp": "2014-03-03T12:37:41.899457", "longitude": -73.6189, "bikes": 0, "free": 11, "latitude": 45.48, "id": 80}, {"name": "6102 - Lincoln / Dufort", "extra": {"removalDate": "1353794940000", "locked": true, "uid": 91, "installDate": "1364430120000", "latestUpdateTime": "1384787436340", "temporary": false, "installed": true, "terminalName": "6102", "name": "Lincoln / Dufort"}, "timestamp": "2014-03-03T12:37:41.899457", "longitude": -73.583836, "bikes": 0, "free": 15, "latitude": 45.493034, "id": 81}, {"name": "6103 - Bishop/sherbrooke", "extra": {"removalDate": "1353795060000", "locked": true, "uid": 92, "installDate": "1333325940000", "latestUpdateTime": "1353134363400", "temporary": false, "installed": false, "terminalName": "6103", "name": "Bishop/sherbrooke"}, "timestamp": "2014-03-03T12:37:41.899457", "longitude": -73.5798, "bikes": 0, "free": 3, "latitude": 45.4983, "id": 82}, {"name": "6104 - Wolfe / Ren\u00e9-L\u00e9vesque", "extra": {"removalDate": "1353550620000", "locked": true, "uid": 93, "installDate": "1364347920000", "latestUpdateTime": "1384841939695", "temporary": false, "installed": true, "terminalName": "6104", "name": "Wolfe / Ren\u00e9-L\u00e9vesque"}, "timestamp": "2014-03-03T12:37:41.899457", "longitude": -73.55417490005493, "bikes": 0, "free": 31, "latitude": 45.516872646826776, "id": 83}, {"name": "6105 - Plessis / Ren\u00e9-L\u00e9vesque", "extra": {"removalDate": "1353549960000", "locked": true, "uid": 94, "installDate": "1362608820000", "latestUpdateTime": "1384841748662", "temporary": false, "installed": true, "terminalName": "6105", "name": "Plessis / Ren\u00e9-L\u00e9vesque"}, "timestamp": "2014-03-03T12:37:41.899457", "longitude": -73.552, "bikes": 0, "free": 19, "latitude": 45.51954, "id": 84}, {"name": "6106 - Ren\u00e9-L\u00e9vesque / Papineau", "extra": {"removalDate": "1353550680000", "locked": true, "uid": 95, "installDate": "1365206100000", "latestUpdateTime": "1384841982772", "temporary": false, "installed": true, "terminalName": "6106", "name": "Ren\u00e9-L\u00e9vesque / Papineau"}, "timestamp": "2014-03-03T12:37:41.899457", "longitude": -73.54926, "bikes": 0, "free": 29, "latitude": 45.52114, "id": 85}, {"name": "6107 - Sainte-Catherine / Guy", "extra": {"removalDate": "1352902620000", "locked": true, "uid": 96, "installDate": "1362874860000", "latestUpdateTime": "1384841895009", "temporary": false, "installed": true, "terminalName": "6107", "name": "Sainte-Catherine / Guy"}, "timestamp": "2014-03-03T12:37:41.899457", "longitude": -73.57803583145142, "bikes": 0, "free": 31, "latitude": 45.49500696707128, "id": 86}, {"name": "6108 - Logan / Fullum", "extra": {"removalDate": "1353551340000", "locked": true, "uid": 97, "installDate": "1365211140000", "latestUpdateTime": "1384917724732", "temporary": false, "installed": true, "terminalName": "6108", "name": "Logan / Fullum"}, "timestamp": "2014-03-03T12:37:41.899457", "longitude": -73.55108499526978, "bikes": 0, "free": 15, "latitude": 45.528448693514136, "id": 87}, {"name": "6109 - Fullum / Jean-Langlois", "extra": {"removalDate": "1353551400000", "locked": true, "uid": 98, "installDate": "1365168480000", "latestUpdateTime": "1384841940104", "temporary": false, "installed": true, "terminalName": "6109", "name": "Fullum / Jean-Langlois"}, "timestamp": "2014-03-03T12:37:41.899457", "longitude": -73.54612, "bikes": 0, "free": 15, "latitude": 45.52615, "id": 88}, {"name": "6110 - Poupart / Sainte-Catherine", "extra": {"removalDate": "1353551400000", "locked": true, "uid": 99, "installDate": "1365168480000", "latestUpdateTime": "1384928685079", "temporary": false, "installed": true, "terminalName": "6110", "name": "Poupart / Sainte-Catherine"}, "timestamp": "2014-03-03T12:37:41.899457", "longitude": -73.54641, "bikes": 0, "free": 15, "latitude": 45.529033, "id": 89}, {"name": "6111 - Parthenais / Sainte-Catherine", "extra": {"removalDate": "1353551460000", "locked": true, "uid": 100, "installDate": "1367025600000", "latestUpdateTime": "1384928724501", "temporary": false, "installed": true, "terminalName": "6111", "name": "Parthenais / Sainte-Catherine"}, "timestamp": "2014-03-03T12:37:41.899457", "longitude": -73.54933, "bikes": 0, "free": 19, "latitude": 45.52622, "id": 90}, {"name": "6112 - Montcalm/Maisonneuve", "extra": {"removalDate": "", "locked": true, "uid": 101, "installDate": "1366306020000", "latestUpdateTime": "1384928686499", "temporary": false, "installed": true, "terminalName": "6112", "name": "Montcalm/Maisonneuve"}, "timestamp": "2014-03-03T12:37:41.899457", "longitude": -73.55786, "bikes": 0, "free": 19, "latitude": 45.519157, "id": 91}, {"name": "6113 - Alexandre-DeS\u00e8ve / Maisonneuve", "extra": {"removalDate": "1353639060000", "locked": true, "uid": 102, "installDate": "1365168540000", "latestUpdateTime": "1384928652566", "temporary": false, "installed": true, "terminalName": "6113", "name": "Alexandre-DeS\u00e8ve / Maisonneuve"}, "timestamp": "2014-03-03T12:37:41.899457", "longitude": -73.55534, "bikes": 0, "free": 19, "latitude": 45.5219, "id": 92}, {"name": "6114 - M\u00e9tro Papineau (Cartier / Ste-Catherine)", "extra": {"removalDate": "1353638880000", "locked": true, "uid": 103, "installDate": "1365212040000", "latestUpdateTime": "1385015475634", "temporary": false, "installed": true, "terminalName": "6114", "name": "M\u00e9tro Papineau (Cartier / Ste-Catherine)"}, "timestamp": "2014-03-03T12:37:41.899457", "longitude": -73.55199, "bikes": 0, "free": 25, "latitude": 45.52353, "id": 93}, {"name": "6115 - Benny/ Monkland", "extra": {"removalDate": "1353626160000", "locked": true, "uid": 104, "installDate": "1365125340000", "latestUpdateTime": "1384668216495", "temporary": false, "installed": true, "terminalName": "6115", "name": "Benny/ Monkland"}, "timestamp": "2014-03-03T12:37:41.899457", "longitude": -73.6311, "bikes": 0, "free": 11, "latitude": 45.4666, "id": 94}, {"name": "6116 - Plessis / Ontario", "extra": {"removalDate": "1353550080000", "locked": true, "uid": 105, "installDate": "1365210780000", "latestUpdateTime": "1384928563756", "temporary": false, "installed": true, "terminalName": "6116", "name": "Plessis / Ontario"}, "timestamp": "2014-03-03T12:37:41.899457", "longitude": -73.560941, "bikes": 0, "free": 19, "latitude": 45.523584, "id": 95}, {"name": "6117 - Robin / de la Visitation", "extra": {"removalDate": "1353639060000", "locked": true, "uid": 106, "installDate": "1334069700000", "latestUpdateTime": "1384928610184", "temporary": false, "installed": true, "terminalName": "6117", "name": "Robin / de la Visitation"}, "timestamp": "2014-03-03T12:37:41.899457", "longitude": -73.55922, "bikes": 0, "free": 15, "latitude": 45.52087, "id": 96}, {"name": "6118 - Champlain / Ontario", "extra": {"removalDate": "1353638880000", "locked": true, "uid": 107, "installDate": "1365166920000", "latestUpdateTime": "1384928563714", "temporary": false, "installed": true, "terminalName": "6118", "name": "Champlain / Ontario"}, "timestamp": "2014-03-03T12:37:41.899457", "longitude": -73.56003552675247, "bikes": 0, "free": 19, "latitude": 45.52504753729988, "id": 97}, {"name": "6119 - Dorion / Ontario", "extra": {"removalDate": "1353638580000", "locked": true, "uid": 108, "installDate": "1365180840000", "latestUpdateTime": "1384928610702", "temporary": false, "installed": true, "terminalName": "6119", "name": "Dorion / Ontario"}, "timestamp": "2014-03-03T12:37:41.899457", "longitude": -73.55821, "bikes": 0, "free": 23, "latitude": 45.52695, "id": 98}, {"name": "6120 - Parthenais / Ontario", "extra": {"removalDate": "1353638880000", "locked": true, "uid": 109, "installDate": "1365166980000", "latestUpdateTime": "1384943031476", "temporary": false, "installed": true, "terminalName": "6120", "name": "Parthenais / Ontario"}, "timestamp": "2014-03-03T12:37:41.899457", "longitude": -73.55622, "bikes": 0, "free": 15, "latitude": 45.52954, "id": 99}, {"name": "6121 - Du havre/Rouen", "extra": {"removalDate": "1353639000000", "locked": true, "uid": 110, "installDate": "1365685440000", "latestUpdateTime": "1384928722106", "temporary": false, "installed": true, "terminalName": "6121", "name": "Du havre/Rouen"}, "timestamp": "2014-03-03T12:37:41.899457", "longitude": -73.555495, "bikes": 0, "free": 11, "latitude": 45.534818, "id": 100}, {"name": "6122 - Logan / d'Iberville", "extra": {"removalDate": "1353639000000", "locked": true, "uid": 111, "installDate": "1365178320000", "latestUpdateTime": "1385102311631", "temporary": false, "installed": true, "terminalName": "6122", "name": "Logan / d'Iberville"}, "timestamp": "2014-03-03T12:37:41.899457", "longitude": -73.54913, "bikes": 0, "free": 15, "latitude": 45.53057, "id": 101}, {"name": "6123 - Alexandre de S\u00e8ve / La Fontaine", "extra": {"removalDate": "1353638940000", "locked": true, "uid": 112, "installDate": "1365212280000", "latestUpdateTime": "1384754983396", "temporary": false, "installed": true, "terminalName": "6123", "name": "Alexandre de S\u00e8ve / La Fontaine"}, "timestamp": "2014-03-03T12:37:41.899457", "longitude": -73.558187, "bikes": 0, "free": 15, "latitude": 45.523217, "id": 102}, {"name": "6124 - Poupart/Ontario", "extra": {"removalDate": "1353638820000", "locked": true, "uid": 113, "installDate": "1365197340000", "latestUpdateTime": "1384755043593", "temporary": false, "installed": true, "terminalName": "6124", "name": "Poupart/Ontario"}, "timestamp": "2014-03-03T12:37:41.899457", "longitude": -73.553263, "bikes": 0, "free": 19, "latitude": 45.531949, "id": 103}, {"name": "6125 - Ellendale/C\u00f4te-Des-Neiges", "extra": {"removalDate": "1353551580000", "locked": true, "uid": 114, "installDate": "", "latestUpdateTime": "1384668230903", "temporary": false, "installed": true, "terminalName": "6125", "name": "Ellendale/C\u00f4te-Des-Neiges"}, "timestamp": "2014-03-03T12:37:41.899457", "longitude": -73.629298, "bikes": 0, "free": 11, "latitude": 45.499757, "id": 104}, {"name": "6126 - Rouen / Fullum", "extra": {"removalDate": "1353638640000", "locked": true, "uid": 115, "installDate": "1365180900000", "latestUpdateTime": "1384754985243", "temporary": false, "installed": true, "terminalName": "6126", "name": "Rouen / Fullum"}, "timestamp": "2014-03-03T12:37:41.899457", "longitude": -73.55859, "bikes": 0, "free": 19, "latitude": 45.53217, "id": 105}, {"name": "6127 - du Havre / Hochelaga", "extra": {"removalDate": "1353638640000", "locked": true, "uid": 116, "installDate": "1365173760000", "latestUpdateTime": "1384841895155", "temporary": false, "installed": true, "terminalName": "6127", "name": "du Havre / Hochelaga"}, "timestamp": "2014-03-03T12:37:41.899457", "longitude": -73.55821967124939, "bikes": 0, "free": 15, "latitude": 45.535915483036966, "id": 106}, {"name": "6128 - Florian / Ontario", "extra": {"removalDate": "1353638220000", "locked": true, "uid": 117, "installDate": "1334069580000", "latestUpdateTime": "1384841982014", "temporary": false, "installed": true, "terminalName": "6128", "name": "Florian / Ontario"}, "timestamp": "2014-03-03T12:37:41.899457", "longitude": -73.550173, "bikes": 0, "free": 19, "latitude": 45.537134, "id": 107}, {"name": "6130 - Sherbrooke / Frontenac", "extra": {"removalDate": "1353551520000", "locked": true, "uid": 118, "installDate": "1364332380000", "latestUpdateTime": "1385102100951", "temporary": false, "installed": true, "terminalName": "6130", "name": "Sherbrooke / Frontenac"}, "timestamp": "2014-03-03T12:37:41.899457", "longitude": -73.56081, "bikes": 0, "free": 15, "latitude": 45.5367, "id": 108}, {"name": "6131 - Fullum / Sherbrooke", "extra": {"removalDate": "1353638280000", "locked": true, "uid": 119, "installDate": "1364322900000", "latestUpdateTime": "1385015348367", "temporary": false, "installed": true, "terminalName": "6131", "name": "Fullum / Sherbrooke"}, "timestamp": "2014-03-03T12:37:41.899457", "longitude": -73.562425, "bikes": 0, "free": 15, "latitude": 45.533924, "id": 109}, {"name": "6133 - Terasse Mercure / Fulum", "extra": {"removalDate": "1353973620000", "locked": true, "uid": 120, "installDate": "1367026500000", "latestUpdateTime": "1384841940336", "temporary": false, "installed": true, "terminalName": "6133", "name": "Terasse Mercure / Fulum"}, "timestamp": "2014-03-03T12:37:41.899457", "longitude": -73.566014, "bikes": 0, "free": 15, "latitude": 45.535614, "id": 110}, {"name": "6129 - de Bordeaux / Sherbrooke", "extra": {"removalDate": "1353638280000", "locked": true, "uid": 121, "installDate": "1364346900000", "latestUpdateTime": "1385102100989", "temporary": false, "installed": true, "terminalName": "6129", "name": "de Bordeaux / Sherbrooke"}, "timestamp": "2014-03-03T12:37:41.899457", "longitude": -73.56317639350891, "bikes": 0, "free": 15, "latitude": 45.53002706078813, "id": 111}, {"name": "6202 - Sainte-Famille / Sherbrooke", "extra": {"removalDate": "1353879600000", "locked": true, "uid": 122, "installDate": "1364861880000", "latestUpdateTime": "1384928611957", "temporary": false, "installed": true, "terminalName": "6202", "name": "Sainte-Famille / Sherbrooke"}, "timestamp": "2014-03-03T12:37:41.899457", "longitude": -73.570654, "bikes": 0, "free": 23, "latitude": 45.510016, "id": 112}, {"name": "6047 - University / Prince-Arthur", "extra": {"removalDate": "1353359040000", "locked": true, "uid": 123, "installDate": "1364248620000", "latestUpdateTime": "1384953272801", "temporary": false, "installed": true, "terminalName": "6047", "name": "University / Prince-Arthur"}, "timestamp": "2014-03-03T12:37:41.899457", "longitude": -73.57845, "bikes": 0, "free": 31, "latitude": 45.50733, "id": 113}, {"name": "6079 - Hutchison/ Prince Arthur", "extra": {"removalDate": "1353638700000", "locked": true, "uid": 124, "installDate": "1362187500000", "latestUpdateTime": "1384754984876", "temporary": false, "installed": true, "terminalName": "6079", "name": "Hutchison/ Prince Arthur"}, "timestamp": "2014-03-03T12:37:41.899457", "longitude": -73.576105, "bikes": 0, "free": 23, "latitude": 45.509864, "id": 114}, {"name": "6022 - Molson / William - Tremblay", "extra": {"removalDate": "1353879300000", "locked": true, "uid": 125, "installDate": "1365877260000", "latestUpdateTime": "1385276092266", "temporary": false, "installed": true, "terminalName": "6022", "name": "Molson / William - Tremblay"}, "timestamp": "2014-03-03T12:37:41.899457", "longitude": -73.565258, "bikes": 0, "free": 11, "latitude": 45.541532, "id": 115}, {"name": "6093 - Atwater / Sherbrooke", "extra": {"removalDate": "1353639060000", "locked": true, "uid": 126, "installDate": "1364390280000", "latestUpdateTime": "1384841748498", "temporary": false, "installed": true, "terminalName": "6093", "name": "Atwater / Sherbrooke"}, "timestamp": "2014-03-03T12:37:41.899457", "longitude": -73.58780980110168, "bikes": 0, "free": 23, "latitude": 45.49132174886071, "id": 116}, {"name": "6913 - Drolet / Beaubien", "extra": {"removalDate": "1354144020000", "locked": true, "uid": 127, "installDate": "1366105800000", "latestUpdateTime": "1385102155031", "temporary": false, "installed": true, "terminalName": "6913", "name": "Drolet / Beaubien"}, "timestamp": "2014-03-03T12:37:41.899457", "longitude": -73.605834, "bikes": 0, "free": 15, "latitude": 45.533348, "id": 117}, {"name": "6915 - Alma / Beaubien", "extra": {"removalDate": "1354144020000", "locked": true, "uid": 128, "installDate": "1366105860000", "latestUpdateTime": "1385015387710", "temporary": false, "installed": true, "terminalName": "6915", "name": "Alma / Beaubien"}, "timestamp": "2014-03-03T12:37:41.899457", "longitude": -73.607591, "bikes": 0, "free": 11, "latitude": 45.531425, "id": 118}, {"name": "6916 - Parc du P\u00e9lican (Laurier/2e ave)", "extra": {"removalDate": "", "locked": true, "uid": 129, "installDate": "1366306080000", "latestUpdateTime": "1385102251663", "temporary": false, "installed": true, "terminalName": "6916", "name": "Parc du P\u00e9lican (Laurier/2e ave)"}, "timestamp": "2014-03-03T12:37:41.899457", "longitude": -73.572811, "bikes": 0, "free": 11, "latitude": 45.54483, "id": 119}, {"name": "6918 - 9e Avenue / Dandurand", "extra": {"removalDate": "1354142760000", "locked": true, "uid": 130, "installDate": "", "latestUpdateTime": "1385015426954", "temporary": false, "installed": true, "terminalName": "6918", "name": "9e Avenue / Dandurand"}, "timestamp": "2014-03-03T12:37:41.899457", "longitude": -73.57711, "bikes": 0, "free": 11, "latitude": 45.550769, "id": 120}, {"name": "6923 - Marquette / Jean-Talon", "extra": {"removalDate": "1353415260000", "locked": true, "uid": 131, "installDate": "1365851100000", "latestUpdateTime": "1385362819135", "temporary": false, "installed": true, "terminalName": "6923", "name": "Marquette / Jean-Talon"}, "timestamp": "2014-03-03T12:37:41.899457", "longitude": -73.60760986804962, "bikes": 0, "free": 19, "latitude": 45.54735612315234, "id": 121}, {"name": "6925 - des \u00c9cores / Jean-Talon", "extra": {"removalDate": "1353415320000", "locked": true, "uid": 132, "installDate": "1365851040000", "latestUpdateTime": "1385362894467", "temporary": false, "installed": true, "terminalName": "6925", "name": "des \u00c9cores / Jean-Talon"}, "timestamp": "2014-03-03T12:37:41.899457", "longitude": -73.60300183296204, "bikes": 0, "free": 11, "latitude": 45.55244260913485, "id": 122}, {"name": "6072 - Pr\u00e9sident-Kennedy / University", "extra": {"removalDate": "1353502200000", "locked": true, "uid": 133, "installDate": "1364766660000", "latestUpdateTime": "1384841831956", "temporary": false, "installed": true, "terminalName": "6072", "name": "Pr\u00e9sident-Kennedy / University"}, "timestamp": "2014-03-03T12:37:41.899457", "longitude": -73.57255339622498, "bikes": 0, "free": 23, "latitude": 45.50463252180637, "id": 123}, {"name": "6075 - Drummond / du Docteur-Penfield", "extra": {"removalDate": "1353638040000", "locked": true, "uid": 134, "installDate": "1364767080000", "latestUpdateTime": "1384581359963", "temporary": false, "installed": true, "terminalName": "6075", "name": "Drummond / du Docteur-Penfield"}, "timestamp": "2014-03-03T12:37:41.899457", "longitude": -73.58126521110535, "bikes": 0, "free": 15, "latitude": 45.50194054022276, "id": 124}, {"name": "6134 - Gascon/Rachel", "extra": {"removalDate": "1353973380000", "locked": false, "uid": 135, "installDate": "1367155500000", "latestUpdateTime": "1378828552375", "temporary": false, "installed": true, "terminalName": "6134", "name": "Gascon/Rachel"}, "timestamp": "2014-03-03T12:37:41.899457", "longitude": -73.562643, "bikes": 0, "free": 7, "latitude": 45.537964, "id": 125}, {"name": "6132 - Larivi\u00e8re / de Lorimier", "extra": {"removalDate": "1353973380000", "locked": false, "uid": 136, "installDate": "1364347800000", "latestUpdateTime": "1384776846444", "temporary": false, "installed": true, "terminalName": "6132", "name": "Larivi\u00e8re / de Lorimier"}, "timestamp": "2014-03-03T12:37:41.899457", "longitude": -73.559410572052, "bikes": 0, "free": 19, "latitude": 45.52915520624575, "id": 126}, {"name": "6136 - Parthenais/Marie-Anne", "extra": {"removalDate": "1353973440000", "locked": false, "uid": 137, "installDate": "1365727140000", "latestUpdateTime": "1366809807582", "temporary": false, "installed": false, "terminalName": "6136", "name": "Parthenais/Marie-Anne"}, "timestamp": "2014-03-03T12:37:41.899457", "longitude": -73.569206, "bikes": 0, "free": 15, "latitude": 45.535607, "id": 127}, {"name": "6137 - Gauthier / Papineau", "extra": {"removalDate": "1353973140000", "locked": true, "uid": 138, "installDate": "1365727260000", "latestUpdateTime": "1385015387400", "temporary": false, "installed": true, "terminalName": "6137", "name": "Gauthier / Papineau"}, "timestamp": "2014-03-03T12:37:41.899457", "longitude": -73.56663, "bikes": 0, "free": 22, "latitude": 45.530202, "id": 128}, {"name": "6138 - de Bordeaux / Gauthier", "extra": {"removalDate": "1353973140000", "locked": true, "uid": 139, "installDate": "1365727200000", "latestUpdateTime": "1385102302439", "temporary": false, "installed": true, "terminalName": "6138", "name": "de Bordeaux / Gauthier"}, "timestamp": "2014-03-03T12:37:41.899457", "longitude": -73.566, "bikes": 0, "free": 15, "latitude": 45.5313, "id": 129}, {"name": "6139 - Gauthier / des \u00c9rables", "extra": {"removalDate": "1353973200000", "locked": true, "uid": 140, "installDate": "1365727080000", "latestUpdateTime": "1384668089861", "temporary": false, "installed": true, "terminalName": "6139", "name": "Gauthier / des \u00c9rables"}, "timestamp": "2014-03-03T12:37:41.899457", "longitude": -73.56437, "bikes": 1, "free": 14, "latitude": 45.53237, "id": 130}, {"name": "6140 - Marquette / Rachel", "extra": {"removalDate": "1353973620000", "locked": true, "uid": 141, "installDate": "1367025240000", "latestUpdateTime": "1384754934846", "temporary": false, "installed": true, "terminalName": "6140", "name": "Marquette / Rachel"}, "timestamp": "2014-03-03T12:37:41.899457", "longitude": -73.5702896118164, "bikes": 0, "free": 14, "latitude": 45.5298015824607, "id": 131}, {"name": "6141 - de Bordeaux / Rachel", "extra": {"removalDate": "1353973680000", "locked": true, "uid": 142, "installDate": "1367256300000", "latestUpdateTime": "1384841984117", "temporary": false, "installed": true, "terminalName": "6141", "name": "de Bordeaux / Rachel"}, "timestamp": "2014-03-03T12:37:41.899457", "longitude": -73.56828, "bikes": 0, "free": 19, "latitude": 45.53227, "id": 132}, {"name": "6142 - Calixa Laval\u00e9e / Rachel", "extra": {"removalDate": "1353972660000", "locked": true, "uid": 143, "installDate": "1365850980000", "latestUpdateTime": "1385102154925", "temporary": false, "installed": true, "terminalName": "6142", "name": "Calixa Laval\u00e9e / Rachel"}, "timestamp": "2014-03-03T12:37:41.899457", "longitude": -73.572056, "bikes": 0, "free": 31, "latitude": 45.527791, "id": 133}, {"name": "6143 - Rachel / Br\u00e9beuf", "extra": {"removalDate": "1353795360000", "locked": true, "uid": 144, "installDate": "1367025780000", "latestUpdateTime": "1385015426323", "temporary": false, "installed": true, "terminalName": "6143", "name": "Rachel / Br\u00e9beuf"}, "timestamp": "2014-03-03T12:37:41.899457", "longitude": -73.57264, "bikes": 0, "free": 15, "latitude": 45.52689, "id": 134}, {"name": "6145 - du Parc-La Fontaine / Duluth", "extra": {"removalDate": "1353795180000", "locked": true, "uid": 145, "installDate": "1367025780000", "latestUpdateTime": "1385015467240", "temporary": false, "installed": true, "terminalName": "6145", "name": "du Parc-La Fontaine / Duluth"}, "timestamp": "2014-03-03T12:37:41.899457", "longitude": -73.57221, "bikes": 0, "free": 11, "latitude": 45.52469, "id": 135}, {"name": "6146 - du Parc-La Fontaine / Roy", "extra": {"removalDate": "1353795180000", "locked": true, "uid": 146, "installDate": "1367078760000", "latestUpdateTime": "1385015388321", "temporary": false, "installed": true, "terminalName": "6146", "name": "du Parc-La Fontaine / Roy"}, "timestamp": "2014-03-03T12:37:41.899457", "longitude": -73.568731, "bikes": 0, "free": 11, "latitude": 45.523084, "id": 136}, {"name": "6147 - Calixa-Lavall\u00e9e / Sherbrooke", "extra": {"removalDate": "1353972660000", "locked": true, "uid": 147, "installDate": "1364573040000", "latestUpdateTime": "1385015350337", "temporary": false, "installed": true, "terminalName": "6147", "name": "Calixa-Lavall\u00e9e / Sherbrooke"}, "timestamp": "2014-03-03T12:37:41.899457", "longitude": -73.56545, "bikes": 0, "free": 22, "latitude": 45.52479, "id": 137}, {"name": "6148 - \u00c9mile-Duploy\u00e9 / Sherbrooke", "extra": {"removalDate": "1353795120000", "locked": true, "uid": 148, "installDate": "1367174520000", "latestUpdateTime": "1384841830458", "temporary": false, "installed": true, "terminalName": "6148", "name": "\u00c9mile-Duploy\u00e9 / Sherbrooke"}, "timestamp": "2014-03-03T12:37:41.899457", "longitude": -73.56463, "bikes": 0, "free": 19, "latitude": 45.52729, "id": 138}, {"name": "6149 - Chapleau / Mont-Royal", "extra": {"removalDate": "1353973680000", "locked": true, "uid": 149, "installDate": "1367160060000", "latestUpdateTime": "1384928652660", "temporary": false, "installed": true, "terminalName": "6149", "name": "Chapleau / Mont-Royal"}, "timestamp": "2014-03-03T12:37:41.899457", "longitude": -73.56936, "bikes": 0, "free": 15, "latitude": 45.53867, "id": 139}, {"name": "6150 - Fullum / Mont-Royal", "extra": {"removalDate": "1353973680000", "locked": true, "uid": 150, "installDate": "1365727080000", "latestUpdateTime": "1384928563344", "temporary": false, "installed": true, "terminalName": "6150", "name": "Fullum / Mont-Royal"}, "timestamp": "2014-03-03T12:37:41.899457", "longitude": -73.570182, "bikes": 0, "free": 15, "latitude": 45.537553, "id": 140}, {"name": "6151 - des \u00c9rables / Mont-Royal", "extra": {"removalDate": "1353973740000", "locked": true, "uid": 151, "installDate": "1365727260000", "latestUpdateTime": "1384928688176", "temporary": false, "installed": true, "terminalName": "6151", "name": "des \u00c9rables / Mont-Royal"}, "timestamp": "2014-03-03T12:37:41.899457", "longitude": -73.57172, "bikes": 0, "free": 19, "latitude": 45.53565, "id": 141}, {"name": "6152 - Chabot / Mont-Royal", "extra": {"removalDate": "1353973440000", "locked": true, "uid": 152, "installDate": "1367079660000", "latestUpdateTime": "1384841830469", "temporary": false, "installed": true, "terminalName": "6152", "name": "Chabot / Mont-Royal"}, "timestamp": "2014-03-03T12:37:41.899457", "longitude": -73.57349216938019, "bikes": 0, "free": 19, "latitude": 45.53413436610843, "id": 142}, {"name": "6153 - Marie-Anne / Papineau", "extra": {"removalDate": "1353973560000", "locked": true, "uid": 153, "installDate": "1332811680000", "latestUpdateTime": "1384928722127", "temporary": false, "installed": true, "terminalName": "6153", "name": "Marie-Anne / Papineau"}, "timestamp": "2014-03-03T12:37:41.899457", "longitude": -73.5723227262497, "bikes": 0, "free": 15, "latitude": 45.53189473818018, "id": 143}, {"name": "6154 - Marquette / Mont-Royal", "extra": {"removalDate": "1353973500000", "locked": true, "uid": 154, "installDate": "1367256420000", "latestUpdateTime": "1385102202563", "temporary": false, "installed": true, "terminalName": "6154", "name": "Marquette / Mont-Royal"}, "timestamp": "2014-03-03T12:37:41.899457", "longitude": -73.57544, "bikes": 0, "free": 23, "latitude": 45.53229, "id": 144}, {"name": "6155 - Garnier / Mont-Royal", "extra": {"removalDate": "1353973440000", "locked": true, "uid": 155, "installDate": "1367256420000", "latestUpdateTime": "1385102251784", "temporary": false, "installed": true, "terminalName": "6155", "name": "Garnier / Mont-Royal"}, "timestamp": "2014-03-03T12:37:41.899457", "longitude": -73.57674, "bikes": 0, "free": 31, "latitude": 45.53092, "id": 145}, {"name": "6156 - Marie-Anne / de la Roche", "extra": {"removalDate": "1353973500000", "locked": true, "uid": 156, "installDate": "1367079060000", "latestUpdateTime": "1385188913101", "temporary": false, "installed": true, "terminalName": "6156", "name": "Marie-Anne / de la Roche"}, "timestamp": "2014-03-03T12:37:41.899457", "longitude": -73.5762494802475, "bikes": 0, "free": 18, "latitude": 45.52773841379083, "id": 146}, {"name": "6157 - de la Roche / Mont-Royal", "extra": {"removalDate": "1351863360000", "locked": true, "uid": 157, "installDate": "1367080740000", "latestUpdateTime": "1385102154004", "temporary": false, "installed": true, "terminalName": "6157", "name": "de la Roche / Mont-Royal"}, "timestamp": "2014-03-03T12:37:41.899457", "longitude": -73.57828, "bikes": 0, "free": 23, "latitude": 45.52856, "id": 147}, {"name": "6158 - Gilford / Br\u00e9beuf", "extra": {"removalDate": "1354144320000", "locked": true, "uid": 158, "installDate": "1366044480000", "latestUpdateTime": "1385188971514", "temporary": false, "installed": true, "terminalName": "6158", "name": "Gilford / Br\u00e9beuf"}, "timestamp": "2014-03-03T12:37:41.899457", "longitude": -73.58153, "bikes": 0, "free": 15, "latitude": 45.53073, "id": 148}, {"name": "6159 - Berri/St-Joseph", "extra": {"removalDate": "1353973560000", "locked": true, "uid": 159, "installDate": "1366046760000", "latestUpdateTime": "1384928724750", "temporary": false, "installed": true, "terminalName": "6159", "name": "Berri/St-Joseph"}, "timestamp": "2014-03-03T12:37:41.899457", "longitude": -73.58708, "bikes": 0, "free": 11, "latitude": 45.52743, "id": 149}, {"name": "6160 - Garnier / Saint-Joseph", "extra": {"removalDate": "1353973800000", "locked": true, "uid": 160, "installDate": "1366033380000", "latestUpdateTime": "1385189114472", "temporary": false, "installed": true, "terminalName": "6160", "name": "Garnier / Saint-Joseph"}, "timestamp": "2014-03-03T12:37:41.899457", "longitude": -73.58118, "bikes": 0, "free": 19, "latitude": 45.53297, "id": 150}, {"name": "6161 - Cartier / Saint-Joseph", "extra": {"removalDate": "1353973800000", "locked": true, "uid": 161, "installDate": "1366033440000", "latestUpdateTime": "1385102101497", "temporary": false, "installed": true, "terminalName": "6161", "name": "Cartier / Saint-Joseph"}, "timestamp": "2014-03-03T12:37:41.899457", "longitude": -73.57867, "bikes": 0, "free": 23, "latitude": 45.53576, "id": 151}, {"name": "6162 - Fullum / Saint-Joseph", "extra": {"removalDate": "1353973800000", "locked": true, "uid": 162, "installDate": "1366051380000", "latestUpdateTime": "1384841830495", "temporary": false, "installed": true, "terminalName": "6162", "name": "Fullum / Saint-Joseph"}, "timestamp": "2014-03-03T12:37:41.899457", "longitude": -73.575158, "bikes": 0, "free": 15, "latitude": 45.54003, "id": 152}, {"name": "6163 - Marquette / Laurier", "extra": {"removalDate": "", "locked": true, "uid": 163, "installDate": "1366115340000", "latestUpdateTime": "1384841984304", "temporary": false, "installed": true, "terminalName": "6163", "name": "Marquette / Laurier"}, "timestamp": "2014-03-03T12:37:41.899457", "longitude": -73.5822, "bikes": 0, "free": 23, "latitude": 45.53543, "id": 153}, {"name": "6164 - Garnier / Laurier", "extra": {"removalDate": "", "locked": true, "uid": 164, "installDate": "1366115400000", "latestUpdateTime": "1384754982988", "temporary": false, "installed": true, "terminalName": "6164", "name": "Garnier / Laurier"}, "timestamp": "2014-03-03T12:37:41.899457", "longitude": -73.583368, "bikes": 0, "free": 15, "latitude": 45.534134, "id": 154}, {"name": "6165 - Br\u00e9beuf / Laurier", "extra": {"removalDate": "", "locked": true, "uid": 165, "installDate": "1366295160000", "latestUpdateTime": "1384841940783", "temporary": false, "installed": true, "terminalName": "6165", "name": "Br\u00e9beuf / Laurier"}, "timestamp": "2014-03-03T12:37:41.899457", "longitude": -73.58507, "bikes": 0, "free": 31, "latitude": 45.53248, "id": 155}, {"name": "6166 - Br\u00e9beuf / Saint-Gr\u00e9goire", "extra": {"removalDate": "", "locked": true, "uid": 166, "installDate": "1366295160000", "latestUpdateTime": "1384754934272", "temporary": false, "installed": true, "terminalName": "6166", "name": "Br\u00e9beuf / Saint-Gr\u00e9goire"}, "timestamp": "2014-03-03T12:37:41.899457", "longitude": -73.58852, "bikes": 0, "free": 15, "latitude": 45.5341, "id": 156}, {"name": "6167 - Marquette / Saint-Gr\u00e9goire", "extra": {"removalDate": "1353973260000", "locked": true, "uid": 167, "installDate": "1366032780000", "latestUpdateTime": "1384754982554", "temporary": false, "installed": true, "terminalName": "6167", "name": "Marquette / Saint-Gr\u00e9goire"}, "timestamp": "2014-03-03T12:37:41.899457", "longitude": -73.58584, "bikes": 0, "free": 11, "latitude": 45.53703, "id": 157}, {"name": "6168 - Hotel de ville/viger", "extra": {"removalDate": "1384358100000", "locked": false, "uid": 168, "installDate": "1366739220000", "latestUpdateTime": "1384333848046", "temporary": false, "installed": false, "terminalName": "6168", "name": "Hotel de ville/viger"}, "timestamp": "2014-03-03T12:37:41.899457", "longitude": -73.557278, "bikes": 0, "free": 23, "latitude": 45.509474, "id": 158}, {"name": "6169 - St-Andr\u00e9/Laurier", "extra": {"removalDate": "1353880260000", "locked": false, "uid": 169, "installDate": "1366050480000", "latestUpdateTime": "1377696650272", "temporary": false, "installed": false, "terminalName": "6169", "name": "St-Andr\u00e9/Laurier"}, "timestamp": "2014-03-03T12:37:41.899457", "longitude": -73.587479, "bikes": 0, "free": 7, "latitude": 45.529511, "id": 159}, {"name": "6170 - de Mentana / Laurier", "extra": {"removalDate": "1353880380000", "locked": true, "uid": 170, "installDate": "1366032480000", "latestUpdateTime": "1384842220758", "temporary": false, "installed": true, "terminalName": "6170", "name": "de Mentana / Laurier"}, "timestamp": "2014-03-03T12:37:41.899457", "longitude": -73.58677, "bikes": 0, "free": 15, "latitude": 45.530046, "id": 160}, {"name": "6171 - Wolfe/Robin", "extra": {"removalDate": "1353551280000", "locked": true, "uid": 171, "installDate": "1364347860000", "latestUpdateTime": "1384928565697", "temporary": false, "installed": true, "terminalName": "6171", "name": "Wolfe/Robin"}, "timestamp": "2014-03-03T12:37:41.899457", "longitude": -73.560269, "bikes": 0, "free": 15, "latitude": 45.5195, "id": 161}, {"name": "6173 - Cherrier / Berri", "extra": {"removalDate": "1353880020000", "locked": true, "uid": 173, "installDate": "1364424300000", "latestUpdateTime": "1385189025049", "temporary": false, "installed": true, "terminalName": "6173", "name": "Cherrier / Berri"}, "timestamp": "2014-03-03T12:37:41.899457", "longitude": -73.5692414, "bikes": 1, "free": 25, "latitude": 45.5191458, "id": 162}, {"name": "6174 - Roy / Saint-Denis", "extra": {"removalDate": "1353879960000", "locked": true, "uid": 174, "installDate": "1365727320000", "latestUpdateTime": "1385102301865", "temporary": false, "installed": true, "terminalName": "6174", "name": "Roy / Saint-Denis"}, "timestamp": "2014-03-03T12:37:41.899457", "longitude": -73.5727, "bikes": 0, "free": 27, "latitude": 45.51908, "id": 163}, {"name": "6175 - St-Andr\u00e9/Cherrier", "extra": {"removalDate": "1350647400000", "locked": true, "uid": 175, "installDate": "1366023600000", "latestUpdateTime": "1385188971862", "temporary": false, "installed": true, "terminalName": "6175", "name": "St-Andr\u00e9/Cherrier"}, "timestamp": "2014-03-03T12:37:41.899457", "longitude": -73.567733, "bikes": 0, "free": 15, "latitude": 45.520578, "id": 164}, {"name": "6176 - St-Andr\u00e9 / Duluth", "extra": {"removalDate": "1382971260000", "locked": false, "uid": 176, "installDate": "1367079720000", "latestUpdateTime": "1382967223976", "temporary": false, "installed": false, "terminalName": "6176", "name": "St-Andr\u00e9 / Duluth"}, "timestamp": "2014-03-03T12:37:41.899457", "longitude": -73.573431, "bikes": 0, "free": 19, "latitude": 45.523171, "id": 165}, {"name": "6177 - Saint-Andr\u00e9 / Rachel", "extra": {"removalDate": "1353880260000", "locked": true, "uid": 177, "installDate": "1367080740000", "latestUpdateTime": "1385189114816", "temporary": false, "installed": true, "terminalName": "6177", "name": "Saint-Andr\u00e9 / Rachel"}, "timestamp": "2014-03-03T12:37:41.899457", "longitude": -73.575771, "bikes": 0, "free": 15, "latitude": 45.524222, "id": 166}, {"name": "6178 - Rivard/Rachel", "extra": {"removalDate": "1353880020000", "locked": true, "uid": 178, "installDate": "1367174280000", "latestUpdateTime": "1385189114990", "temporary": false, "installed": true, "terminalName": "6178", "name": "Rivard/Rachel"}, "timestamp": "2014-03-03T12:37:41.899457", "longitude": -73.577821, "bikes": 0, "free": 19, "latitude": 45.522448, "id": 167}, {"name": "6179 - Duluth / Saint-Denis", "extra": {"removalDate": "1353879780000", "locked": true, "uid": 179, "installDate": "1367174220000", "latestUpdateTime": "1385102302136", "temporary": false, "installed": true, "terminalName": "6179", "name": "Duluth / Saint-Denis"}, "timestamp": "2014-03-03T12:37:41.899457", "longitude": -73.57577741146088, "bikes": 0, "free": 22, "latitude": 45.52077419099789, "id": 168}, {"name": "6180 - St-Jacques/St-Laurent", "extra": {"removalDate": "1353795660000", "locked": true, "uid": 180, "installDate": "1332698820000", "latestUpdateTime": "1385102202093", "temporary": false, "installed": true, "terminalName": "6180", "name": "St-Jacques/St-Laurent"}, "timestamp": "2014-03-03T12:37:41.899457", "longitude": -73.556605, "bikes": 0, "free": 11, "latitude": 45.50612, "id": 169}, {"name": "6181 - Clark/Rachel", "extra": {"removalDate": "1353973860000", "locked": true, "uid": 181, "installDate": "1365500220000", "latestUpdateTime": "1384841982224", "temporary": false, "installed": true, "terminalName": "6181", "name": "Clark/Rachel"}, "timestamp": "2014-03-03T12:37:41.899457", "longitude": -73.582648, "bikes": 0, "free": 31, "latitude": 45.516853, "id": 170}, {"name": "6182 - Buillon / Mont-Royal", "extra": {"removalDate": "1353795660000", "locked": true, "uid": 182, "installDate": "1367261760000", "latestUpdateTime": "1385015349218", "temporary": false, "installed": true, "terminalName": "6182", "name": "Buillon / Mont-Royal"}, "timestamp": "2014-03-03T12:37:41.899457", "longitude": -73.5851, "bikes": 0, "free": 19, "latitude": 45.5215, "id": 171}, {"name": "6183 - Laval / Mont-Royal", "extra": {"removalDate": "1353795600000", "locked": true, "uid": 183, "installDate": "1334741760000", "latestUpdateTime": "1385052749967", "temporary": false, "installed": true, "terminalName": "6183", "name": "Laval / Mont-Royal"}, "timestamp": "2014-03-03T12:37:41.899457", "longitude": -73.58412981033325, "bikes": 0, "free": 6, "latitude": 45.52241290921658, "id": 172}, {"name": "6184 - M\u00e9tro Mont-Royal (Rivard/Mont-Royal)", "extra": {"removalDate": "1353794940000", "locked": true, "uid": 184, "installDate": "1364598840000", "latestUpdateTime": "1385188913872", "temporary": false, "installed": true, "terminalName": "6184", "name": "M\u00e9tro Mont-Royal (Rivard/Mont-Royal)"}, "timestamp": "2014-03-03T12:37:41.899457", "longitude": -73.58199, "bikes": 0, "free": 39, "latitude": 45.52468, "id": 173}, {"name": "6185 - Des \u00e9rables/B\u00e9langer", "extra": {"removalDate": "1353795000000", "locked": true, "uid": 185, "installDate": "1367261940000", "latestUpdateTime": "1385015427313", "temporary": false, "installed": true, "terminalName": "6185", "name": "Des \u00e9rables/B\u00e9langer"}, "timestamp": "2014-03-03T12:37:41.899457", "longitude": -73.601006, "bikes": 0, "free": 11, "latitude": 45.549286, "id": 174}, {"name": "6186 - Boyer / Mont-Royal", "extra": {"removalDate": "1384356720000", "locked": false, "uid": 186, "installDate": "1367080440000", "latestUpdateTime": "1384332243544", "temporary": false, "installed": false, "terminalName": "6186", "name": "Boyer / Mont-Royal"}, "timestamp": "2014-03-03T12:37:41.899457", "longitude": -73.58002, "bikes": 1, "free": 22, "latitude": 45.52743, "id": 175}, {"name": "6187 - Saint-Andr\u00e9 / de Bienville", "extra": {"removalDate": "1353880200000", "locked": true, "uid": 187, "installDate": "1367087100000", "latestUpdateTime": "1384928654566", "temporary": false, "installed": true, "terminalName": "6187", "name": "Saint-Andr\u00e9 / de Bienville"}, "timestamp": "2014-03-03T12:37:41.899457", "longitude": -73.58226, "bikes": 0, "free": 15, "latitude": 45.5272, "id": 176}, {"name": "6188 - Mentana / Marie-Anne", "extra": {"removalDate": "1354058460000", "locked": true, "uid": 188, "installDate": "1367174460000", "latestUpdateTime": "1385102301849", "temporary": false, "installed": true, "terminalName": "6188", "name": "Mentana / Marie-Anne"}, "timestamp": "2014-03-03T12:37:41.899457", "longitude": -73.577808, "bikes": 0, "free": 15, "latitude": 45.525983, "id": 177}, {"name": "6189 - Chabot/Everret", "extra": {"removalDate": "1354143060000", "locked": true, "uid": 189, "installDate": "1365851100000", "latestUpdateTime": "1385102252633", "temporary": false, "installed": true, "terminalName": "6189", "name": "Chabot/Everret"}, "timestamp": "2014-03-03T12:37:41.899457", "longitude": -73.6096, "bikes": 0, "free": 11, "latitude": 45.5507, "id": 178}, {"name": "6190 - Pontiac/Gilford", "extra": {"removalDate": "1354056540000", "locked": true, "uid": 190, "installDate": "1367262000000", "latestUpdateTime": "1384928685647", "temporary": false, "installed": true, "terminalName": "6190", "name": "Pontiac/Gilford"}, "timestamp": "2014-03-03T12:37:41.899457", "longitude": -73.585852, "bikes": 0, "free": 15, "latitude": 45.527008, "id": 179}, {"name": "6191 - St-Zotique/Clark", "extra": {"removalDate": "1353880260000", "locked": true, "uid": 191, "installDate": "1332866520000", "latestUpdateTime": "1384928611125", "temporary": false, "installed": true, "terminalName": "6191", "name": "St-Zotique/Clark"}, "timestamp": "2014-03-03T12:37:41.899457", "longitude": -73.612674, "bikes": 0, "free": 15, "latitude": 45.531401, "id": 180}, {"name": "6192 - M\u00e9tro Laurier (Rivard/Bibaud)", "extra": {"removalDate": "1354056600000", "locked": true, "uid": 192, "installDate": "1365727500000", "latestUpdateTime": "1384928611932", "temporary": false, "installed": true, "terminalName": "6192", "name": "M\u00e9tro Laurier (Rivard/Bibaud)"}, "timestamp": "2014-03-03T12:37:41.899457", "longitude": -73.58958, "bikes": 0, "free": 15, "latitude": 45.527733, "id": 181}, {"name": "6193 - Esplanade/Fairmount", "extra": {"removalDate": "1354056660000", "locked": true, "uid": 193, "installDate": "1365811920000", "latestUpdateTime": "1384928723292", "temporary": false, "installed": true, "terminalName": "6193", "name": "Esplanade/Fairmount"}, "timestamp": "2014-03-03T12:37:41.899457", "longitude": -73.596758, "bikes": 0, "free": 15, "latitude": 45.521495, "id": 182}, {"name": "6094 - Henri-Julien / Maguire", "extra": {"removalDate": "1354056480000", "locked": true, "uid": 194, "installDate": "1367193660000", "latestUpdateTime": "1384928685221", "temporary": false, "installed": true, "terminalName": "6094", "name": "Henri-Julien / Maguire"}, "timestamp": "2014-03-03T12:37:41.899457", "longitude": -73.593402, "bikes": 0, "free": 19, "latitude": 45.527265, "id": 183}, {"name": "6195 - de Bullion / Boul. Saint-Joseph", "extra": {"removalDate": "1353879600000", "locked": true, "uid": 195, "installDate": "1366138800000", "latestUpdateTime": "1385102154427", "temporary": false, "installed": true, "terminalName": "6195", "name": "de Bullion / Boul. Saint-Joseph"}, "timestamp": "2014-03-03T12:37:41.899457", "longitude": -73.58978, "bikes": 0, "free": 15, "latitude": 45.52377, "id": 184}, {"name": "6196 - Villeneuve/St-Laurent", "extra": {"removalDate": "1350648000000", "locked": true, "uid": 196, "installDate": "1365619260000", "latestUpdateTime": "1385102154108", "temporary": false, "installed": true, "terminalName": "6196", "name": "Villeneuve/St-Laurent"}, "timestamp": "2014-03-03T12:37:41.899457", "longitude": -73.58918, "bikes": 0, "free": 19, "latitude": 45.52157, "id": 185}, {"name": "6197 - Cartier/Masson", "extra": {"removalDate": "1354058520000", "locked": true, "uid": 197, "installDate": "1334191320000", "latestUpdateTime": "1385529471838", "temporary": false, "installed": true, "terminalName": "6197", "name": "Cartier/Masson"}, "timestamp": "2014-03-03T12:37:41.899457", "longitude": -73.583502, "bikes": 0, "free": 19, "latitude": 45.537985, "id": 186}, {"name": "6198 - H\u00e9l\u00e8ne-Baillargeon / Saint-Denis", "extra": {"removalDate": "1354058520000", "locked": true, "uid": 198, "installDate": "1366292880000", "latestUpdateTime": "1384928563740", "temporary": false, "installed": true, "terminalName": "6198", "name": "H\u00e9l\u00e8ne-Baillargeon / Saint-Denis"}, "timestamp": "2014-03-03T12:37:41.899457", "longitude": -73.59527, "bikes": 0, "free": 23, "latitude": 45.52974, "id": 187}, {"name": "6199 - Clark / Saint-Viateur", "extra": {"removalDate": "1354058340000", "locked": true, "uid": 199, "installDate": "1365727380000", "latestUpdateTime": "1384754935313", "temporary": false, "installed": true, "terminalName": "6199", "name": "Clark / Saint-Viateur"}, "timestamp": "2014-03-03T12:37:41.899457", "longitude": -73.5993754863739, "bikes": 0, "free": 19, "latitude": 45.52517156097331, "id": 188}, {"name": "6200 - Maguire / Saint-Laurent", "extra": {"removalDate": "1354058340000", "locked": true, "uid": 200, "installDate": "1367193540000", "latestUpdateTime": "1384841749530", "temporary": false, "installed": true, "terminalName": "6200", "name": "Maguire / Saint-Laurent"}, "timestamp": "2014-03-03T12:37:41.899457", "longitude": -73.59588, "bikes": 0, "free": 15, "latitude": 45.52457, "id": 189}, {"name": "6201 - Villeneuve / de l'H\u00f4tel-de-Ville", "extra": {"removalDate": "1350647400000", "locked": true, "uid": 201, "installDate": "1365620400000", "latestUpdateTime": "1384928565705", "temporary": false, "installed": true, "terminalName": "6201", "name": "Villeneuve / de l'H\u00f4tel-de-Ville"}, "timestamp": "2014-03-03T12:37:41.899457", "longitude": -73.58750939369202, "bikes": 0, "free": 19, "latitude": 45.52352540631033, "id": 190}, {"name": "6203 - Hutchison / Sherbrooke", "extra": {"removalDate": "1353879120000", "locked": true, "uid": 202, "installDate": "1364343660000", "latestUpdateTime": "1384841983029", "temporary": false, "installed": true, "terminalName": "6203", "name": "Hutchison / Sherbrooke"}, "timestamp": "2014-03-03T12:37:41.899457", "longitude": -73.57208, "bikes": 0, "free": 23, "latitude": 45.50781, "id": 191}, {"name": "6205 - Milton / du Parc", "extra": {"removalDate": "1384271280000", "locked": false, "uid": 203, "installDate": "1364343000000", "latestUpdateTime": "1384267064419", "temporary": false, "installed": false, "terminalName": "6205", "name": "Milton / du Parc"}, "timestamp": "2014-03-03T12:37:41.899457", "longitude": -73.57354, "bikes": 0, "free": 27, "latitude": 45.50971, "id": 192}, {"name": "6206 - Prince-Arthur / du Parc", "extra": {"removalDate": "1353879900000", "locked": true, "uid": 204, "installDate": "1364343060000", "latestUpdateTime": "1384928730208", "temporary": false, "installed": true, "terminalName": "6206", "name": "Prince-Arthur / du Parc"}, "timestamp": "2014-03-03T12:37:41.899457", "longitude": -73.57547, "bikes": 0, "free": 30, "latitude": 45.51059, "id": 193}, {"name": "6207 - Sainte-Famille / des Pins", "extra": {"removalDate": "1353879180000", "locked": true, "uid": 205, "installDate": "1364861520000", "latestUpdateTime": "1384928653211", "temporary": false, "installed": true, "terminalName": "6207", "name": "Sainte-Famille / des Pins"}, "timestamp": "2014-03-03T12:37:41.899457", "longitude": -73.57701659202576, "bikes": 0, "free": 15, "latitude": 45.51281294953485, "id": 194}, {"name": "6208 - Hutchison / des Pins", "extra": {"removalDate": "1353879180000", "locked": true, "uid": 206, "installDate": "1364861640000", "latestUpdateTime": "1384928564042", "temporary": false, "installed": true, "terminalName": "6208", "name": "Hutchison / des Pins"}, "timestamp": "2014-03-03T12:37:41.899457", "longitude": -73.57805, "bikes": 0, "free": 15, "latitude": 45.51069, "id": 195}, {"name": "6209 - Milton / Clark", "extra": {"removalDate": "1353795540000", "locked": true, "uid": 207, "installDate": "1364861520000", "latestUpdateTime": "1384928722908", "temporary": false, "installed": true, "terminalName": "6209", "name": "Milton / Clark"}, "timestamp": "2014-03-03T12:37:41.899457", "longitude": -73.57062, "bikes": 0, "free": 23, "latitude": 45.51252, "id": 196}, {"name": "6210 - Metro  Sauv\u00e9 (Sauv\u00e9/Berri)", "extra": {"removalDate": "1353353580000", "locked": true, "uid": 208, "installDate": "1365811740000", "latestUpdateTime": "1385102201653", "temporary": false, "installed": true, "terminalName": "6210", "name": "Metro  Sauv\u00e9 (Sauv\u00e9/Berri)"}, "timestamp": "2014-03-03T12:37:41.899457", "longitude": -73.656, "bikes": 0, "free": 11, "latitude": 45.5509, "id": 197}, {"name": "6211 - Roy / Saint-Laurent", "extra": {"removalDate": "1353880140000", "locked": true, "uid": 209, "installDate": "1367193300000", "latestUpdateTime": "1385102301665", "temporary": false, "installed": true, "terminalName": "6211", "name": "Roy / Saint-Laurent"}, "timestamp": "2014-03-03T12:37:41.899457", "longitude": -73.57569, "bikes": 0, "free": 23, "latitude": 45.51561, "id": 198}, {"name": "6212 - Duluth/Esplanade", "extra": {"removalDate": "1366838040000", "locked": true, "uid": 210, "installDate": "1366764240000", "latestUpdateTime": "1385276034813", "temporary": false, "installed": true, "terminalName": "6212", "name": "Duluth/Esplanade"}, "timestamp": "2014-03-03T12:37:41.899457", "longitude": -73.581394, "bikes": 0, "free": 15, "latitude": 45.515201, "id": 199}, {"name": "6213 - Duluth / Saint-Laurent", "extra": {"removalDate": "1353795240000", "locked": true, "uid": 211, "installDate": "1367193420000", "latestUpdateTime": "1385189024756", "temporary": false, "installed": true, "terminalName": "6213", "name": "Duluth / Saint-Laurent"}, "timestamp": "2014-03-03T12:37:41.899457", "longitude": -73.57921, "bikes": 0, "free": 15, "latitude": 45.5171, "id": 200}, {"name": "6214 - Square Saint-Louis", "extra": {"removalDate": "1353879960000", "locked": true, "uid": 212, "installDate": "1367173740000", "latestUpdateTime": "1385275914407", "temporary": false, "installed": true, "terminalName": "6214", "name": "Square Saint-Louis"}, "timestamp": "2014-03-03T12:37:41.899457", "longitude": -73.56906, "bikes": 0, "free": 39, "latitude": 45.51735, "id": 201}, {"name": "6215 - Saint-Cuthbert / Saint-Urbain", "extra": {"removalDate": "1353879840000", "locked": true, "uid": 213, "installDate": "1367173800000", "latestUpdateTime": "1385188970900", "temporary": false, "installed": true, "terminalName": "6215", "name": "Saint-Cuthbert / Saint-Urbain"}, "timestamp": "2014-03-03T12:37:41.899457", "longitude": -73.57821, "bikes": 0, "free": 19, "latitude": 45.51494, "id": 202}, {"name": "6216 - Parc du Mont-Royal", "extra": {"removalDate": "1353879900000", "locked": true, "uid": 214, "installDate": "1367262060000", "latestUpdateTime": "1385188972262", "temporary": false, "installed": true, "terminalName": "6216", "name": "Parc du Mont-Royal"}, "timestamp": "2014-03-03T12:37:41.899457", "longitude": -73.58503, "bikes": 0, "free": 27, "latitude": 45.51496, "id": 203}, {"name": "6217 - Marie-Anne / Saint-Urbain", "extra": {"removalDate": "", "locked": true, "uid": 215, "installDate": "1366221000000", "latestUpdateTime": "1385102101774", "temporary": false, "installed": true, "terminalName": "6217", "name": "Marie-Anne / Saint-Urbain"}, "timestamp": "2014-03-03T12:37:41.899457", "longitude": -73.58531, "bikes": 0, "free": 19, "latitude": 45.51778, "id": 204}, {"name": "6219 - Roy / H\u00f4tel de Ville", "extra": {"removalDate": "", "locked": true, "uid": 216, "installDate": "1366221060000", "latestUpdateTime": "1385102156050", "temporary": false, "installed": true, "terminalName": "6219", "name": "Roy / H\u00f4tel de Ville"}, "timestamp": "2014-03-03T12:37:41.899457", "longitude": -73.57435, "bikes": 0, "free": 15, "latitude": 45.51728, "id": 205}, {"name": "6220 - Laval / Duluth", "extra": {"removalDate": "1353795120000", "locked": true, "uid": 217, "installDate": "1334191500000", "latestUpdateTime": "1385102103411", "temporary": false, "installed": true, "terminalName": "6220", "name": "Laval / Duluth"}, "timestamp": "2014-03-03T12:37:41.899457", "longitude": -73.57721507549286, "bikes": 0, "free": 15, "latitude": 45.51923690964773, "id": 206}, {"name": "6221 - Mont-Royal / Clark", "extra": {"removalDate": "1353880020000", "locked": true, "uid": 218, "installDate": "1365727620000", "latestUpdateTime": "1385189207990", "temporary": false, "installed": true, "terminalName": "6221", "name": "Mont-Royal / Clark"}, "timestamp": "2014-03-03T12:37:41.899457", "longitude": -73.58685, "bikes": 0, "free": 23, "latitude": 45.51941, "id": 207}, {"name": "6222 - de l'Esplanade / Mont-Royal", "extra": {"removalDate": "1353795120000", "locked": true, "uid": 219, "installDate": "1365727620000", "latestUpdateTime": "1385015467496", "temporary": false, "installed": true, "terminalName": "6222", "name": "de l'Esplanade / Mont-Royal"}, "timestamp": "2014-03-03T12:37:41.899457", "longitude": -73.587772, "bikes": 0, "free": 23, "latitude": 45.518228, "id": 208}, {"name": "6223 - Mont-Royal / du Parc", "extra": {"removalDate": "", "locked": true, "uid": 220, "installDate": "1366115400000", "latestUpdateTime": "1385189114822", "temporary": false, "installed": true, "terminalName": "6223", "name": "Mont-Royal / du Parc"}, "timestamp": "2014-03-03T12:37:41.899457", "longitude": -73.589, "bikes": 0, "free": 25, "latitude": 45.517, "id": 209}, {"name": "6224 - Villeneuve/ Parc", "extra": {"removalDate": "1353795540000", "locked": true, "uid": 221, "installDate": "1364575380000", "latestUpdateTime": "1385188914719", "temporary": false, "installed": true, "terminalName": "6224", "name": "Villeneuve/ Parc"}, "timestamp": "2014-03-03T12:37:41.899457", "longitude": -73.59235, "bikes": 0, "free": 15, "latitude": 45.51829, "id": 210}, {"name": "6225 - Villeneuve / St-Urbain", "extra": {"removalDate": "1353795600000", "locked": true, "uid": 222, "installDate": "1364576580000", "latestUpdateTime": "1384841747311", "temporary": false, "installed": true, "terminalName": "6225", "name": "Villeneuve / St-Urbain"}, "timestamp": "2014-03-03T12:37:41.899457", "longitude": -73.590559, "bikes": 0, "free": 15, "latitude": 45.520188, "id": 211}, {"name": "6226 - Clark / Laurier", "extra": {"removalDate": "1353972780000", "locked": true, "uid": 223, "installDate": "1364576820000", "latestUpdateTime": "1384928610987", "temporary": false, "installed": true, "terminalName": "6226", "name": "Clark / Laurier"}, "timestamp": "2014-03-03T12:37:41.899457", "longitude": -73.5936, "bikes": 0, "free": 19, "latitude": 45.52266, "id": 212}, {"name": "6227 - Esplanade/Laurier", "extra": {"removalDate": "1354056840000", "locked": true, "uid": 224, "installDate": "1364583660000", "latestUpdateTime": "1384928723212", "temporary": false, "installed": true, "terminalName": "6227", "name": "Esplanade/Laurier"}, "timestamp": "2014-03-03T12:37:41.899457", "longitude": -73.594499, "bikes": 0, "free": 15, "latitude": 45.520906, "id": 213}, {"name": "6229 - Coloniale/ Mont-Royal", "extra": {"removalDate": "1354056900000", "locked": true, "uid": 225, "installDate": "1364576880000", "latestUpdateTime": "1384841980841", "temporary": false, "installed": true, "terminalName": "6229", "name": "Coloniale/ Mont-Royal"}, "timestamp": "2014-03-03T12:37:41.899457", "longitude": -73.585514, "bikes": 0, "free": 15, "latitude": 45.52102, "id": 214}, {"name": "6230 - Waverly / Saint-Viateur", "extra": {"removalDate": "1354056840000", "locked": true, "uid": 226, "installDate": "1364576880000", "latestUpdateTime": "1385189208449", "temporary": false, "installed": true, "terminalName": "6230", "name": "Waverly / Saint-Viateur"}, "timestamp": "2014-03-03T12:37:41.899457", "longitude": -73.60042154788971, "bikes": 0, "free": 19, "latitude": 45.52402527115221, "id": 215}, {"name": "6231 - Saint-Viateur / du Parc", "extra": {"removalDate": "1354056720000", "locked": true, "uid": 227, "installDate": "1364602260000", "latestUpdateTime": "1385276091964", "temporary": false, "installed": true, "terminalName": "6231", "name": "Saint-Viateur / du Parc"}, "timestamp": "2014-03-03T12:37:41.899457", "longitude": -73.6019, "bikes": 0, "free": 23, "latitude": 45.52246, "id": 216}, {"name": "6234 - Bernard / Clark", "extra": {"removalDate": "1353795480000", "locked": true, "uid": 228, "installDate": "1364601060000", "latestUpdateTime": "1385276093630", "temporary": false, "installed": true, "terminalName": "6234", "name": "Bernard / Clark"}, "timestamp": "2014-03-03T12:37:41.899457", "longitude": -73.60261, "bikes": 0, "free": 19, "latitude": 45.52697, "id": 217}, {"name": "6235 - Saint-Dominique / Saint-Viateur", "extra": {"removalDate": "1353879720000", "locked": true, "uid": 229, "installDate": "1364601120000", "latestUpdateTime": "1385275973598", "temporary": false, "installed": true, "terminalName": "6235", "name": "Saint-Dominique / Saint-Viateur"}, "timestamp": "2014-03-03T12:37:41.899457", "longitude": -73.59823286533356, "bikes": 0, "free": 19, "latitude": 45.52654331973003, "id": 218}, {"name": "6236 - bordeaux/Laurier", "extra": {"removalDate": "1353972840000", "locked": true, "uid": 230, "installDate": "1365105960000", "latestUpdateTime": "1385275913482", "temporary": false, "installed": true, "terminalName": "6236", "name": "bordeaux/Laurier"}, "timestamp": "2014-03-03T12:37:41.899457", "longitude": -73.578921, "bikes": 0, "free": 15, "latitude": 45.537305, "id": 219}, {"name": "6237 - De la Roche/St-Gr\u00e9goire", "extra": {"removalDate": "1353972840000", "locked": true, "uid": 232, "installDate": "1366313640000", "latestUpdateTime": "1385188913739", "temporary": false, "installed": true, "terminalName": "6237", "name": "De la Roche/St-Gr\u00e9goire"}, "timestamp": "2014-03-03T12:37:41.899457", "longitude": -73.590055, "bikes": 0, "free": 15, "latitude": 45.532955, "id": 220}, {"name": "6903 - Chapleau / Terrasse guindon", "extra": {"removalDate": "1353879240000", "locked": true, "uid": 233, "installDate": "1366147620000", "latestUpdateTime": "1385015467616", "temporary": false, "installed": true, "terminalName": "6903", "name": "Chapleau / Terrasse guindon"}, "timestamp": "2014-03-03T12:37:41.899457", "longitude": -73.56695830821991, "bikes": 0, "free": 15, "latitude": 45.53751242809744, "id": 221}, {"name": "6924 - de Bordeaux / Jean-Talon", "extra": {"removalDate": "1353415260000", "locked": true, "uid": 234, "installDate": "1365851040000", "latestUpdateTime": "1385362893553", "temporary": false, "installed": true, "terminalName": "6924", "name": "de Bordeaux / Jean-Talon"}, "timestamp": "2014-03-03T12:37:41.899457", "longitude": -73.60551238059998, "bikes": 0, "free": 11, "latitude": 45.54970407823863, "id": 222}, {"name": "6240 - Fairmount / Hutchison", "extra": {"removalDate": "1353879780000", "locked": true, "uid": 236, "installDate": "", "latestUpdateTime": "1385102251566", "temporary": false, "installed": true, "terminalName": "6240", "name": "Fairmount / Hutchison"}, "timestamp": "2014-03-03T12:37:41.899457", "longitude": -73.598419, "bikes": 0, "free": 11, "latitude": 45.519486, "id": 223}, {"name": "6241 - Querbes / Laurier", "extra": {"removalDate": "1353413700000", "locked": true, "uid": 237, "installDate": "1365598740000", "latestUpdateTime": "1384841938803", "temporary": false, "installed": true, "terminalName": "6241", "name": "Querbes / Laurier"}, "timestamp": "2014-03-03T12:37:41.899457", "longitude": -73.597724, "bikes": 0, "free": 11, "latitude": 45.517345, "id": 224}, {"name": "6243 - Bloomfield / Bernard", "extra": {"removalDate": "1353413760000", "locked": true, "uid": 239, "installDate": "1365633660000", "latestUpdateTime": "1385189208404", "temporary": false, "installed": true, "terminalName": "6243", "name": "Bloomfield / Bernard"}, "timestamp": "2014-03-03T12:37:41.899457", "longitude": -73.608144, "bikes": 0, "free": 11, "latitude": 45.520532, "id": 225}, {"name": "6245 - Bloomfield / Van Horne", "extra": {"removalDate": "1353413820000", "locked": true, "uid": 241, "installDate": "1365633720000", "latestUpdateTime": "1384928611591", "temporary": false, "installed": true, "terminalName": "6245", "name": "Bloomfield / Van Horne"}, "timestamp": "2014-03-03T12:37:41.899457", "longitude": -73.613178, "bikes": 0, "free": 11, "latitude": 45.522608, "id": 226}, {"name": "6246 - M\u00e9tro Outremont (Wiseman / Van Horne)", "extra": {"removalDate": "1353413820000", "locked": true, "uid": 242, "installDate": "1365019200000", "latestUpdateTime": "1385188971232", "temporary": false, "installed": true, "terminalName": "6246", "name": "M\u00e9tro Outremont (Wiseman / Van Horne)"}, "timestamp": "2014-03-03T12:37:41.899457", "longitude": -73.614887, "bikes": 0, "free": 20, "latitude": 45.520265, "id": 227}, {"name": "6247 - Casgrain / Saint-Zotique", "extra": {"removalDate": "1354144380000", "locked": true, "uid": 243, "installDate": "1367193480000", "latestUpdateTime": "1385102301576", "temporary": false, "installed": true, "terminalName": "6247", "name": "Casgrain / Saint-Zotique"}, "timestamp": "2014-03-03T12:37:41.899457", "longitude": -73.61108, "bikes": 0, "free": 11, "latitude": 45.53304, "id": 228}, {"name": "6248 - St-Dminique/Rachel", "extra": {"removalDate": "1354143840000", "locked": true, "uid": 244, "installDate": "1364601480000", "latestUpdateTime": "1385015426063", "temporary": false, "installed": true, "terminalName": "6248", "name": "St-Dminique/Rachel"}, "timestamp": "2014-03-03T12:37:41.899457", "longitude": -73.581566, "bikes": 0, "free": 23, "latitude": 45.518593, "id": 229}, {"name": "6249 - B\u00e9langer / Saint-Denis", "extra": {"removalDate": "1354143900000", "locked": true, "uid": 245, "installDate": "1364600940000", "latestUpdateTime": "1385102101823", "temporary": false, "installed": true, "terminalName": "6249", "name": "B\u00e9langer / Saint-Denis"}, "timestamp": "2014-03-03T12:37:41.899457", "longitude": -73.61199, "bikes": 0, "free": 11, "latitude": 45.53696, "id": 230}, {"name": "6250 - Henri-Julien / Jean-Talon", "extra": {"removalDate": "1354143840000", "locked": true, "uid": 246, "installDate": "1364573820000", "latestUpdateTime": "1385102251707", "temporary": false, "installed": true, "terminalName": "6250", "name": "Henri-Julien / Jean-Talon"}, "timestamp": "2014-03-03T12:37:41.899457", "longitude": -73.61529, "bikes": 0, "free": 23, "latitude": 45.53707, "id": 231}, {"name": "6251 - Casgrain / Mozart", "extra": {"removalDate": "1354143900000", "locked": true, "uid": 247, "installDate": "1364573880000", "latestUpdateTime": "1385188912996", "temporary": false, "installed": true, "terminalName": "6251", "name": "Casgrain / Mozart"}, "timestamp": "2014-03-03T12:37:41.899457", "longitude": -73.614726, "bikes": 0, "free": 11, "latitude": 45.534788, "id": 232}, {"name": "6252 - Mozart / Saint-Laurent", "extra": {"removalDate": "1354143960000", "locked": true, "uid": 248, "installDate": "1364573820000", "latestUpdateTime": "1385188970941", "temporary": false, "installed": true, "terminalName": "6252", "name": "Mozart / Saint-Laurent"}, "timestamp": "2014-03-03T12:37:41.899457", "longitude": -73.61544, "bikes": 0, "free": 15, "latitude": 45.53318, "id": 233}, {"name": "6253 - Lajeunesse / Jean-Talon", "extra": {"removalDate": "1353366960000", "locked": true, "uid": 249, "installDate": "1365283200000", "latestUpdateTime": "1385275849658", "temporary": false, "installed": true, "terminalName": "6253", "name": "Lajeunesse / Jean-Talon"}, "timestamp": "2014-03-03T12:37:41.899457", "longitude": -73.61425638198853, "bikes": 0, "free": 11, "latitude": 45.53973680304488, "id": 234}, {"name": "6254 - Boyer / B\u00e9langer", "extra": {"removalDate": "1384356720000", "locked": false, "uid": 250, "installDate": "1366061340000", "latestUpdateTime": "1384350850600", "temporary": false, "installed": false, "terminalName": "6254", "name": "Boyer / B\u00e9langer"}, "timestamp": "2014-03-03T12:37:41.899457", "longitude": -73.60897, "bikes": 0, "free": 19, "latitude": 45.54006, "id": 235}, {"name": "6255 - Boyer / Saint-Zotique", "extra": {"removalDate": "1384356720000", "locked": false, "uid": 251, "installDate": "1366061340000", "latestUpdateTime": "1384348724153", "temporary": false, "installed": false, "terminalName": "6255", "name": "Boyer / Saint-Zotique"}, "timestamp": "2014-03-03T12:37:41.899457", "longitude": -73.60556, "bikes": 0, "free": 19, "latitude": 45.53848, "id": 236}, {"name": "6257 - Saint-Vallier / Saint-Zotique", "extra": {"removalDate": "1354143900000", "locked": true, "uid": 253, "installDate": "1364514420000", "latestUpdateTime": "1385102301844", "temporary": false, "installed": true, "terminalName": "6257", "name": "Saint-Vallier / Saint-Zotique"}, "timestamp": "2014-03-03T12:37:41.899457", "longitude": -73.607773, "bikes": 0, "free": 15, "latitude": 45.536299, "id": 237}, {"name": "6258 - Parc P\u00e8re-Marquette (Chambord / Rosemont)", "extra": {"removalDate": "", "locked": true, "uid": 254, "installDate": "1364341800000", "latestUpdateTime": "1385275973983", "temporary": false, "installed": true, "terminalName": "6258", "name": "Parc P\u00e8re-Marquette (Chambord / Rosemont)"}, "timestamp": "2014-03-03T12:37:41.899457", "longitude": -73.593126, "bikes": 0, "free": 23, "latitude": 45.537035, "id": 238}, {"name": "6259 - Dandurand/De Lorimier", "extra": {"removalDate": "1353879360000", "locked": true, "uid": 255, "installDate": "1362417780000", "latestUpdateTime": "1385102252200", "temporary": false, "installed": true, "terminalName": "6259", "name": "Dandurand/De Lorimier"}, "timestamp": "2014-03-03T12:37:41.899457", "longitude": -73.584157, "bikes": 0, "free": 11, "latitude": 45.540881, "id": 239}, {"name": "6260 - Dandurand/Papineau", "extra": {"removalDate": "1353879360000", "locked": true, "uid": 256, "installDate": "1364514780000", "latestUpdateTime": "1385015348123", "temporary": false, "installed": true, "terminalName": "6260", "name": "Dandurand/Papineau"}, "timestamp": "2014-03-03T12:37:41.899457", "longitude": -73.586302, "bikes": 0, "free": 11, "latitude": 45.538589, "id": 240}, {"name": "6261 - Louis H\u00e9mon / Rosemont", "extra": {"removalDate": "1354058220000", "locked": true, "uid": 257, "installDate": "1364687640000", "latestUpdateTime": "1385189207958", "temporary": false, "installed": true, "terminalName": "6261", "name": "Louis H\u00e9mon / Rosemont"}, "timestamp": "2014-03-03T12:37:41.899457", "longitude": -73.588069, "bikes": 0, "free": 11, "latitude": 45.54458, "id": 241}, {"name": "6262 - de la Roche /  Bellechasse", "extra": {"removalDate": "1354144140000", "locked": true, "uid": 258, "installDate": "1364659980000", "latestUpdateTime": "1385102312654", "temporary": false, "installed": true, "terminalName": "6262", "name": "de la Roche /  Bellechasse"}, "timestamp": "2014-03-03T12:37:41.899457", "longitude": -73.597884, "bikes": 0, "free": 11, "latitude": 45.537202, "id": 242},